business_id,rating,longitude,latitude,Address
Iu-oeVzv8ZgP18NIB0UMqg,3.5,-118.274281,34.01971,3320 S Hill StSouth East LALos Angeles, CA 90007
ae5tm46-ewAhUJ6HR4fXFA,4.0,-71.1148158,42.3711328,12 Arrow StSte 108Harvard SquareCambridge, MA 02138
lb9qELwduFgBo408x2VKOA,4.0,-80.488824,43.4496452,19 King St E2nd floorKitchener, ON N2G
HPWmjuivv3xJ279qSVfNaQ,3.5,-86.908764,40.423964,325 W State StWest Lafayette, IN 47906
DARh6yjrGGVZ7R3Gdh4CMA,3.5,-97.7344962,30.2904945,2803 San Jacinto BlvdUniversity of TexasAustin, TX 78705
ZKcVHVlD-kwmXFlnPzxpMg,3.5,-84.3871775,33.7769878,817 West Peachtree Street, Suite 220MidtownAtlanta, GA 30308
HIPGr2gSEN4T73tjz47hpw,3.5,-74.6608591,40.3497226,1 Palmer Sq EPrinceton, NJ 08542
A_Fm4v2-gQuGBBI-GBx4Uw,4.0,-73.7102039,42.7808878,16 Division StCohoes, NY 12047
-ilTnXu41RrxQITuolQhmQ,3.0,-75.1871563,39.9552997,3218 Market StUniversity CityPhiladelphia, PA 19104
L5ABFgTmN-T-uZjuGpoi3Q,5.0,-95.41811,29.719274,5829 Kirby DrWest UniversityHouston, TX 77005
M1pXCGikSigFib_ZZzKMnA,5.0,-71.0823831,42.3518821,257 Marlborough StBack BayBoston, MA 02116
__PHRVOgyR-WgkKPHwnvoA,4.0,-117.217668,32.875199,4126 Executive DrLa Jolla, CA 92037
9j6aqUdpPojPFkb265ep3w,5.0,-118.132939,34.14502,800 E. Colorado BlvdPasadenaPasadena, CA 91101
MuTJSKkzF_fmK-eG8RoZSA,3.5,-73.688341,42.735455,403 River StTroy, NY 12181
EjgQxDOUS-GFLsNxoEFJJg,3.5,-75.19993,39.96244,Liberty Place1625 Chestnut StMantuaPhiladelphia, PA 19103
zRvrZaXYgZtFaA-ZR93pfA,2.5,-120.659474,35.280606,1023 Marsh StSan Luis Obispo, CA 93401
ipTk8GbPjycGDqGgUZrl9w,3.5,-74.6627477,40.3494332,8 Chambers StPrinceton, NJ 08542
8q_fyg8fkMeVx69jDhJ7jw,4.0,-95.4147852,29.7061077,2401 W Holcombe BlvdWest UniversityHouston, TX 77246
iT581VVVGgpik06KplZOuQ,4.0,-86.8595799,40.416886,3305 South StLafayette, IN 47904
QYOtmUPz0eTkV2sLuRHPvg,4.0,-117.7179955,34.0943947,250 W First StSte 146Claremont, CA 91711
UR9H6ZcjMjGhJmmITypI2A,3.5,-120.664846,35.2792631,1040 Broad StreetSan Luis Obispo, CA 93401
CyUfjTpoIgNghGlqfz9aEw,4.0,-118.26453,34.015521,701 E Jefferson BlvdSouth East LALos Angeles, CA 90011
jztBVgN-TAXhUKczMdB9zA,4.5,-118.132446289,34.1380233765,455 S Lake AvePasadenaPasadena, CA 91101
X9Hna0jBuwkFi-PoTl1w6A,4.5,-120.6638967,35.2815383,817 Palm StSan Luis Obispo, CA 93401
h4IRxYZVDRheLduKfnMDkA,4.5,-71.4121495,41.8234485,201 Westminster StDownCityProvidence, RI 02903
fRYyVkbsiUntbUTCItwVeA,4.0,-75.1856104,39.945448,600 Schuylkill AveGraduate HospitalPhiladelphia, PA 19146
JY576sTpB3ljay2IAajZ2w,4.0,-73.9652725,40.805698,2892 BroadwayMorningside HeightsNew York, NY 10025
Q-aST5Z92-l8yq_NkbX7aQ,5.0,-76.5000327,42.422134,953 Danby RdIthaca, NY 14850
X9OB8N7ZlmMlncHzeO_pmg,3.0,-86.878051,40.417601,1538 Main StLafayette, IN 47905
8Q5YPzkOmfVIvZeldC9o4Q,1.0,-117.68282,34.105888,1690 W Foothill BlvdUpland, CA 91786
mStLDG6jwFG_0qeLUJKmZw,4.0,-83.7484321,42.2799232,215 S Main StDowntown Ann ArborAnn Arbor, MI 48104
WC6y30BJZ8CLjJXDL_jaKg,4.0,-79.952323,40.45204,305 N Craig StOaklandPittsburgh, PA 15213
U-S4SIklb8vc4fLkoVPTCA,3.0,-95.410316,29.7314451,2020 Southwest FwyMuseum DistrictHouston, TX 77098
oB0ogXCEgNOv1qPdDXUtnQ,3.0,-86.8867492676,40.4184624856,133 N 4th StLafayette, IN 47901
QbmyoM98Wfl015RQ8JK1qA,4.0,-118.2884738,34.0202738,University Park CampusSouth Los AngelesLos Angeles, CA 90089
iD6RCiqdOsjGGaQKG356zA,3.0,-118.2839517,34.0256925,3219 Hoover StSouth Los AngelesLos Angeles, CA 90007
xbEoDp0TttnIl7BiNJWVUQ,3.5,-86.84244,40.4165649,The Pavillions100 S Creasy LaneLafayette, IN 47905
4L8sk1KU1tsHEVImKgGv8Q,5.0,-88.214384,40.116792,602 W University AveUrbana, IL 61801
OH0LxbsALqY9vk5dMKCZ3g,4.0,-79.9564375,40.4402973,237 Atwood StOaklandPittsburgh, PA 15213
CrjZoiaRdFivE1esbkQ7sw,4.0,-71.093874,42.359145,84 Massachusetts AveKendall Square/MITCambridge, MA 02139
cgoq8ACyJrSG1OBWcsKEUA,4.0,-117.6896847,34.1054373,922 N Central AveUpland, CA 91786
oidBvZouxEal1NWe5ARrVw,3.5,-76.4875033,42.4420028,410 Eddy StIthaca, NY 14850
dlN9tXw24o4gcREvSGNkgQ,3.0,-84.4043175,33.7819259,1005 Hemphill Ave NWGeorgia TechAtlanta, GA 30318
MnThD5q-m9oLigW5SoWMJQ,3.5,-79.9481151,40.4543642,4757 Baum BlvdBloomfieldPittsburgh, PA 15213
3k4K6l7SP7B4fzq9KpHy0A,3.5,-79.059954,35.9117188,607 W Franklin StChapel Hill, NC 27516
0ttf8ZaXC_67Tv1Gx47WBQ,4.0,-71.0872825,42.3624135,350 Main StKendall Square/MITCambridge, MA 02142
EHMx2IhI-_ooHQo0N-AnHA,3.0,-73.9551352,40.804769,2163 Frederick Douglass BlvdHarlemNew York, NY 10026
QhAPtrNAliEQG-kFH9stCg,4.5,-71.3898962,41.8232588,135 Gano StProvidence, RI 02906
Lp32rSc3OATt1P0Upa4Jxg,3.5,-86.9425982,40.4676551,Cortez & US 52West Lafayette, IN 47906
cvvFEEEkZNyDbNy8UB6esw,3.0,-71.087481,42.362913,5 Cambridge Ctr Ste 5Kendall Square/MITCambridge, MA 02142
ui-X3rHtu8t6eVTEXx4bfg,4.0,-122.1617321,37.4390853,805 El Camino RealSte APalo Alto, CA 94301
qTC7mSF4mdzUYRR9mdKTeQ,3.5,-117.6963732,34.088005,2148 Montclair Plaza LaneMontclair, CA 91763
PBqjmOB7Yjti3cFqy8-Ctw,3.5,-122.16836,37.426398,Cubberley Education Building485 Lasuen MallStanford, CA 94305
t8xAkCfZolJu3bvGk4C8_g,1.0,-74.696927,40.308024,3975 Princeton PikePrinceton, NJ 08540
81IjU5L-t-QQwsE38C63hQ,4.0,-117.7206854,34.0948841,128 N Oberlin AveClaremont, CA 91711
o2nvKsqafexXX2OHG6hKXg,5.0,-118.444059491,34.0704712869,308 Westwood PlzWestwoodLos Angeles, CA 90095
ErMFay-6o83QB2P1k4ALAg,3.5,-73.964007,40.803379,1020 Amsterdam AveMorningside HeightsNew York, NY 10025
2fyzojctEFmSmJZNzI1g4g,2.0,-71.4095667,41.8178406,171 Chestnut StDownCityProvidence, RI 02903
LaW34gZqLnWjiWF8pl-tvg,4.5,-76.932757,38.990908,8145 Baltimore AveCollege Park, MD 20740
gclB3ED6uk6viWlolSb_uA,2.0,-122.260408,37.867417,2400 Durant AveTelegraph AveBerkeley, CA 94701
aIYUBP7zfZ2t0mnx6o62vg,5.0,-118.273641,34.030769,2222 S FigueroaSouth Los AngelesLos Angeles, CA 90007
G3-STn8vhQXsPObIqlBGPw,2.5,-76.4858911,42.4827916,2310 N Triphammer RdIthaca, NY 14850
RU7bd3h2f6pBlf8BfAyxGQ,5.0,-72.5188285,42.376184,41 Boltwood WalkAmherst, MA 01002
3WFnzu8D6S_T7guXZIOp7A,3.5,-80.5190295,43.4593947,187 King Street SouthWaterloo, ON N2J 1R1
D1NESoG1U9hVG52h7JDu0A,3.0,-88.230618,40.110056,519 E Green StChampaign, IL 61820
cHf-cu8bmM3gcvONo6B3JA,3.5,-83.7420748,42.2775947,402 Maynard StAnn Arbor, MI 48104
R--rV0fSLevjMwxIH6DEBQ,2.5,-75.1795506,39.9511559,200 S 24th StRittenhouse SquarePhiladelphia, PA 19103
VE4Vi52enwiPz8SCCSHBxA,4.5,-117.7314746,34.1071258,911 W Foothill BlvdClaremont, CA 91711
TU2HIXtJ1ChIf2J4whGEyw,3.5,-118.4367551,34.0631451,WestwoodLos Angeles, CA 90024
-7jsTZfNIx3Fy72Uc-AMSA,4.0,-71.1002,42.3669,Central SquareCambridge, MA 02238
cWC1aSv6ql0nBzHX_0a6MQ,3.5,-118.4419674,34.0660655,10833 Le Conte AvenueWestwoodLos Angeles, CA 90095
rJHHMEHrnbsX6Y0CSi4Yxg,5.0,-120.66887,35.292989,862 Meinecke AveSte 203San Luis Obispo, CA 93405
BJKIoQa5N2T_oDlLVf467Q,3.0,-122.2602981,37.8759615,1805 Euclid AveUC Campus AreaBerkeley, CA 94709
vZi4rc_ToK_LVpsP3v0-yA,4.5,-122.2587345,37.865097,2447 Dwight WayTelegraph AveBerkeley, CA 94704
2KaY2WqWi9A7gVQUXSFRGQ,4.0,-122.3133414,47.6589156,4219 University Way NEUniversity DistrictSeattle, WA 98105
jwPmerwJxt53xOv6UdsSvA,1.0,-76.9455301,38.9559442,9050 Lanham Severn RdHyattsville, MD 20781
cmTtaP3LeApvz61W94Lvhg,5.0,-79.0535888672,35.9140205383,169 E Franklin StChapel Hill, NC 27514
J2r4vJgdOJiDvUdQFSS9qQ,3.5,-71.394159,41.824758,120 Governor StProvidence, RI 02906
n9KSfii0GCOJOhDJLAXJ7Q,3.5,-73.691,42.679212,294 N Greenbush RdTroy, NY 12180
9m5s_UB5SZCz56hrONB43Q,4.0,-76.9335627,38.9913538,8147 Baltimore AveCollege Park, MD 20740
V2iy6yakrK_AntVK8R7bEA,4.0,-122.262048,37.866781,2333 Channing WaySte 34UC Campus AreaBerkeley, CA 94704
_A4YqG4TqZvCjBUNK-sSxw,3.5,-76.949652,38.969253,6530 Adelphi RdHyattsville, MD 20782
8SqxzaPVVBTIxrbJKZwDxg,4.0,-97.742054,30.295368,2906 Fruth StUniversity of TexasAustin, TX 78705
8lLs3dsSN-Am2_EtNfbXqA,3.5,-73.965675354,40.8057975769,2893 BroadwayMorningside HeightsNew York, NY 10025
Zc3hqSZHkuELzpyRmv6nrQ,3.0,-88.2089281,40.1118394,120 S Race StUrbana, IL 61801
wz3GFJrL92IqJWCE9v-BKA,4.0,-74.683025,40.294505,3349 US Highway 1Lawrence Township, NJ 08648
92rpAUG_KI8lndU5obe1Uw,3.0,-79.932405,40.458694,5738 Baum BlvdEast LibertyPittsburgh, PA 15206
hGbtJYVdJ-EYSgXdGvps6g,3.5,-74.6510141,40.400431,1217 US Hwy 206 NPrinceton, NJ 08540
dP-icsN34lMu6zo9A--1SA,4.5,-95.4175217,29.7157726,2551 Amherst DrWest UniversityHouston, TX 77005
dpqv-Gy6RLXXGnNrGZjOYw,4.5,-76.478911,42.469234,840 Hanshaw Rd Ste 2Ithaca, NY 14850
NZ3A0xYdnmIG68mZeZV6AA,4.0,-88.208287,40.1132,119 W Water StUrbana, IL 61801
Y8C2FuA0Aiy7uMgXXa3HUg,4.5,-88.240606,40.116715,116 N Chestnut StChampaign, IL 61820
XdZMqJbl-oWA_x0F_q5I_A,4.5,-74.6561453,40.3410101,Princeton, NJ 08544
GXcX7pE3hNQoKqANf2im0A,1.0,-76.4825199,42.482006,2303 N Triphammer RdIthaca, NY 14850
CGQaOhJEQAbvdIE67CHr1Q,4.0,-86.8903486,40.4182394,604 Columbia StLafayette, IN 47901
2b6BvccVTtPwElQreRtFYw,3.5,-75.2001318,39.9549304,3900 Chestnut StUniversity CityPhiladelphia, PA 19104
Syiv-lUfj0iScV4Aw9yWaA,5.0,-73.6418473,42.6762253,Albany, NY 12198
T6YKL1wsPRfRhvseX9uNyQ,5.0,-118.1293325,34.1445837,1005 E Green StPasadenaPasadena, CA 91106
oMWoEXLdPEn5HKyQR4-Ssg,4.5,-97.744746,30.282815,610 W Martin Luther King Jr BlvdWest CampusAustin, TX 78705
aIlV9fry1fEYsybM_4K5rQ,4.5,-117.234507,32.870427,8950 Villa La Jolla DrSte A-105La Jolla, CA 92037
kXC-xNb0P3kq7GOaGrazKw,4.5,-117.6896847,34.1054373,922 N Central AveUpland, CA 91786
UqxMeWY3k8_TYGucik-OKA,4.0,-122.300918,47.6644158,2684 NE 49th StUniversity DistrictSeattle, WA 98105
FfhOTfIUtMpMTj26EqQg8Q,4.0,-76.937606,38.97974,7313 Baltimore AveCollege Park, MD 20740
c_yxtSZNaxXAekgAPNW0Cg,4.5,-76.49167,42.45288,Ithaca, NY
tUl7-7sFCX4Y_JJ9m3qbNA,3.0,-73.7065197,42.7138965,632 3rd AveWatervliet, NY 12189
Q396im01LW4sgl2xNC3Fpg,4.5,-122.2606859,37.8684357,2430 Bancroft WayTelegraph AveBerkeley, CA 94704
qIWIti6Putx8E2MZvrmNGQ,2.0,-76.5080426,42.4321656,742 S Meadow StIthaca, NY 14850
oBN5nMW17Dgrubfehja5qA,1.0,-75.1816642,39.9503209,201 S 25th St Apt 604Rittenhouse SquarePhiladelphia, PA 19103
ZNJKyj1eGFWT3nSBLdTaLA,4.5,-76.9068399,38.9971722,6210 Greenbelt RdGreenbelt, MD 20770
UJw-KnIdnzwbvxzNvIUhgw,3.0,-75.190296,39.95915,203 N 34th StPowelton VillagePhiladelphia, PA 19104
FTdSPMbBw11SFswvFPgJ5Q,2.5,-117.2379299,32.877065,9500 Gilman DrSan Diego, CA 92037
3ObFdIz5ZQA2E_flzVYDgw,5.0,-71.4025661,41.8203303,38 Transit StFox PointProvidence, RI 02903
SHflj5Ie7-BeC6aSQFJc9Q,4.0,-73.6791045,42.739482,120 Hoosick StTroy, NY 12180
yiR4dDit58T8pYg1GMvO3Q,3.5,-73.9660115,40.8053032,2873 BroadwayMorningside HeightsNew York, NY 10025
-ZfUYXTphJdZuBTbfodP3Q,4.0,-117.721389771,34.0944671631,540 W 1st StClaremont, CA 91711
75iVE77Z3w_SJbERaLBhbQ,5.0,-84.4054538,33.7815618,533 10th St NWGeorgia TechAtlanta, GA 30318
Hy2JzrPyqqHk7ed2g-zWbg,2.5,-84.3871398,33.7769608,817 W Peachtree Street NWMidtownAtlanta, GA 30308
oH0S5GrCTOv_btOQd0UrLA,4.5,-86.8518913,40.3936266,2415 Sagamore Pkwy SLafayette, IN 47905
CxYMVhOnWQuYaVv7wTAiAg,5.0,-72.5187519,42.376581,59B Boltwood WalkAmherst, MA 01002
W-RJfufcf-GtIPrdyrJ6pQ,2.0,-71.4006111,41.8281263,178 Angell StCollege HillProvidence, RI 02918
jFCPJfX3qzfsNaQIyi7-ig,5.0,-118.131846,34.143731,120 S Lake AvePasadenaPasadena, CA 91101
tnwOUxWjrQeloEsdEzb53Q,4.0,-118.284472,34.037829,2001 S Hoover StreetSouth Los AngelesLos Angeles, CA 90007
7sBIv30fhszkBsv0kkSBCg,3.0,-122.2992767,47.6617333,2614 NE 46th StUniversity VillageUniversity DistrictSeattle, WA 98105
IU9j37tFH_Dg_8rLkuqDSQ,4.0,-80.5273068,43.463366,83 Erb St WWaterloo, ON N2L 6C2
iH5a2hXZ0BonJS31n_TwNw,1.5,-76.953446,38.964514,6210 Belcrest RdHyattsville, MD 20782
_VVitWVj4AvzqV91O6c1Mw,4.0,-122.2586637,37.8661098,2442 Telegraph AveTelegraph AveBerkeley, CA 94704
yuMPHKwfxWeaDjjNzSGESA,3.0,-79.9507118,40.4523237,4635 Centre AveOaklandPittsburgh, PA 15213
DN9QCQigMZSSeH9yO4r6bg,1.5,-122.301816,47.6651049,4915 25th Ave NESte 301University DistrictSeattle, WA 98105
xkX9SUlI27BDuliNOcuMbg,3.5,-86.891641,40.418049,501 Columbia StLafayette, IN 47901
xwyJUcRY0hNlLY0PDqZhlA,3.5,-79.071875923,35.9115719576,Carr Mill MallCarrboro, NC 27510
lauGgBNIedEApT-gsNbLAA,5.0,-120.665139,35.284829,956 Walnut StSan Luis Obispo, CA 93401
ZiMpqxXKyiN-zsOqp9Vllw,4.5,-84.3992496,33.7734038,350 Ferst DrGeorgia TechAtlanta, GA 30332
y-rxr2D4UEcWK0uRwKNLEg,4.0,-122.3131101,47.6621044,4527 University Way NEUniversity DistrictSeattle, WA 98105
0637qPnv_9upNsjTqA4aYg,4.0,-71.0976636,42.3618052,265 Massachusetts AveKendall Square/MITCambridge, MA 02139
lnpg_iEDbPT2ZOeBhjneow,3.5,-118.291235,34.036226,2130 S Vermont AveSouth Los AngelesLos Angeles, CA 90007
dPIsxsqE22IZ-R43NalT0g,4.5,-72.5778732,42.3445618,206 Russell StHadley, MA 01035
hZUAk5fthL27KwuKicliMQ,4.5,-75.1914835,39.9558626,3401 Market StreetPowelton VillagePhiladelphia, PA 19104
DFjkBf-0JvCNwh8aaYd1-g,5.0,-122.3126854,47.6612115,1409 NE 45th StUniversity DistrictSeattle, WA 98105
oEP8EQRxILT8svJmALwh6w,3.0,-76.512604,42.445768,525 Taughannock BlvdIthaca, NY 14850
FzVANX7N-FQbUZNfKhFJSg,3.5,-88.243435,40.1066266,805 S Neil StChampaign, IL 61820
h2YIIoZC9uYmgpn4vT7Zng,4.5,-120.6552358,35.2856762,1445 Monterey StSan Luis Obispo, CA 93401
3-A0nQLO5utUk9gwSwvcuA,2.0,-117.6870301,34.1068801,1747 W Foothill BlvdUpland, CA 91786
xk_sdpCQVikfiouEvXhxkQ,3.0,-84.3998161,33.7678353,384 Northyards Blvd NWAtlanta, GA 30313
IVenYICiQs5nv9cZkqCD5w,2.0,-71.1037261,42.3658266,10 Prospect StCentral SquareCambridge, MA 02238
qLSAFVz8MdF8GJ5UGtg_mg,3.0,-97.74206,30.294209,2815 Guadalupe StWest CampusAustin, TX 78705
XrqownLHKAzfQwJl-spFeQ,4.0,-80.5284966,43.5034294,55 Northfield Dr EWaterloo, ON N2K 3T6
T1ugJiVm210G_4QvmQCz1g,4.0,-76.9258282,38.994807,5010 Berwyn RdCollege Park, MD 20740
PyIJ8OEfltYaHWJaIwUF2Q,2.5,-122.3007475,47.663277,2630 NE University Village StUniversity DistrictSeattle, WA 98105
Mg1CS5aRT_eV4qaGpEvnIQ,3.0,-117.2306384,32.8679865,3363 Nobel DrLa Jolla, CA 92037
50y29SCG_vhtZy4T75hjsg,4.5,-71.118404,42.3732401,1344 Massachusetts AveHarvard SquareCambridge, MA 02138
HYzPCEgsLDtgJ9vQtERdxA,1.0,-120.6677612,35.2932087,21 Santa Rosa StSte 150San Luis Obispo, CA 93405
IQpohksufCBmGJYZCsZf7g,4.5,-117.6909304,34.1066585,2016 W Foothill BlvdSte BUpland, CA 91786
N-urZV7AHwkI2oavPqJDtQ,3.5,-72.5336856,42.3245395,Hampshire College893 West StAmherst, MA 01004
15YzmE7eR42WLsKCoWtOTg,5.0,-120.659983,35.280824,1020 Marsh StSan Luis Obispo, CA 93401
IdKD1fNtf80lhyP5Ldr_rw,2.5,-76.930318,39.008203,9330 Baltimore AveCollege Park, MD 20740
OdopTmxrlxldE4UINKVhFw,4.5,-71.4007221,41.8238303,42 Charlesfield StCollege HillProvidence, RI 02906
qwy4ECNXVxTirx8zLTk8Jw,4.5,-71.3978995,41.8194316,263 Wickenden StFox PointProvidence, RI 02903
5lOX07_kaaJDKrJD56BFgw,4.5,-118.4483652,34.0672309,633 Gayley AveWestwoodLos Angeles, CA 90024
kKFUNcLklJ54zZNUk-7yjQ,3.0,-79.923154,40.435293,1922 Murray AveSquirrel HillPittsburgh, PA 15217
x_HjoEGn6a1jo-soBQJf9Q,4.5,-83.7418993,42.2793857,603 E Liberty StDowntown Ann ArborAnn Arbor, MI 48104
khdkBG4SetzbtvkGZpyGTQ,3.0,-97.7433776855,30.2822093964,500 W Martin Luther King Jr BlSte AWest CampusAustin, TX 78701
Zb22gjD3m_MwFRB6Ay-QOw,3.5,-76.484656,42.441762,208 Dryden Rd Ste 2Ithaca, NY 14850
X_1PaKwj4GhqwZ9Fi22WRA,4.5,-75.205574,39.954897,4109 Walnut StUniversity CityPhiladelphia, PA 19104
sm15YgK4ubMLq11d2whkYQ,4.0,-122.312971,47.6650167,1406-B NE 50th StUniversity DistrictSeattle, WA 98105
7AlULGZI1pHt0imODsqdkg,4.5,-88.231789,40.1100629,501 E GreenChampaign, IL 61820
Dbph47k1l-u8G5n04JuXBg,5.0,-118.445792198,34.0656720509,200 UCLA Medical PlzSte 420WestwoodLos Angeles, CA 90095
4Mxc95eqsqvrMXJOSp51bw,2.5,-95.4016627,29.7100578,1717 Dryden RdWest UniversityHouston, TX 77030
3S1_y9oueDsvvZufCwptIQ,3.0,-76.896336,38.998975,7850 Walker DrSte 110Greenbelt, MD 20770
B4XBd2EsP49XSThU4Cvmrg,2.5,-71.1221066,42.373192,111 Mount Auburn StHarvard SquareCambridge, MA 02138
ePpchMyJFt9F-oKEHh1WXg,4.0,-83.7341426,42.2751201,1209 S University AveAnn Arbor, MI 48104
Pb0vN4yPgwXn2TOS1ptjjg,2.5,-117.7167425,34.0964809,206 W Bonita AveClaremont, CA 91711
Cd_JVOq_cBueqB9q3X0rkQ,4.0,-88.233756,40.116052,315 E University AveChampaign, IL 61820
0neJ-fo4UDYJN5GAag3DEw,3.0,-122.2586856,37.86561,2468 Telegraph AvenueTelegraph AveBerkeley, CA 94704
HoLltXQfn_vK-LS4VP3wCw,3.5,-97.7416535,30.2928304,2716 Guadalupe StWest CampusAustin, TX 78705
yxjiPZIbWcIOSwOrc1_RSA,3.5,-122.3007559,47.6632973,2610 NE University VillageUniversity DistrictSeattle, WA 98105
MXWSVpWoHq0-29bLt-j9qA,3.0,-80.48587,37.204465,2929 Weatherly CtBlacksburg, VA 24060
lsjRpOCkNvgduR8-YAUJJQ,4.5,-117.718999386,34.0967289581,353 Bonita AveClaremont, CA 91711
8fOGgn8aNrJmAObOd7nxmg,2.5,-95.4116607,29.7062912,2260 W Holcombe BlvdWest UniversityHouston, TX 77030
I3Mzzi5jLiy56ameiG-FIg,3.5,-75.1995344,39.9572391,51 N 39th StSte 340Powelton VillagePhiladelphia, PA 19104
WDxidvOxya-tGcJldNZElg,3.0,-120.6640794,35.279036,723 Higuera StSan Luis Obispo, CA 93401
rJsSNcvbnpYTMYz5JXktOQ,4.5,-86.837031,40.424636,3829 Union StLafayette, IN 47905
P_7A5Ztw4Pwizpdqfx-G-Q,3.0,-118.4450734,34.0602498,1118 Westwood BlvdWestwoodLos Angeles, CA 90024
EAcuimBT8oua2XKLC0UpLA,4.0,-71.415196,41.823065,125 Washington StDownCityProvidence, RI 02903
gWKUg9L0cWkGRsa1ztN72A,4.5,-71.1033087,42.3661287,42 Prospect StCentral SquareCambridge, MA 02139
lQENQYvnL7JOpvfMogDA_Q,3.0,-73.9652818,40.800768,949 Amsterdam AveManhattan ValleyNew York, NY 10025
C8Y9hSU5VjQLNH9rRGKJLQ,4.0,-120.6655407,35.2844759,878 Walnut StSan Luis Obispo, CA 93401
Ryt1Fhgz7sixMQSJiLyP_g,3.0,-75.1938838,39.958557,3600 Lancaster AvePowelton VillagePhiladelphia, PA 19104
kg55k4eCSpTH5uoIOjNPtQ,4.5,-97.742366,30.283247,2010 Guadalupe StreetThe DragAustin, TX 78705
AYuAIf2KkIUF8HaMyorwzQ,4.0,-73.701272,42.741427,2 Archibald StWatervliet, NY 12189
9oKaebSlAZPDhniHdkZTSQ,2.0,-122.3130367,47.6618511,4518 University Way NEUniversity DistrictSeattle, WA 98105
Hp3hFrjuu4nHz5sNkgbZbA,2.5,-117.229749,32.877353,9500 Gilman DrSan Diego, CA 92093
IxopnFY3N31qMErNHaRTGg,4.0,-75.2062665,39.956841,4200 Ludlow StUniversity CityPhiladelphia, PA 19104
60f6JzTRhOyOggsjCfvh5Q,1.5,-73.9598342,40.814025,3141 BroadwayHarlemManhattan, NY 10027
ch1ercqwoNLpQLxpTb90KQ,4.0,-71.1206388474,42.3718298384,54 JFK StHarvard SquareCambridge, MA 02138
gCaIfAJ93W6fvmKuasF6Xw,3.5,-72.530616,42.4095138,1177 N Pleasant StAmherst, MA 01002
jfZXp0POls-M2cgSxsS8fw,2.5,-71.410016,41.822204,123 Dorrance StDownCityProvidence, RI 02903
GZOJJ32d6E1M-IZ0TtZ8gw,3.5,-86.858009,40.401518,3338 Main StLafayette, IN 47905
E4gLWrcaO9GGhWq3cknKzg,5.0,-122.3130879,47.6624149,4536 University Way NEUniversity DistrictSeattle, WA 98105
SGlowZEhllX_NqwQIpIzaQ,3.0,-122.1707225,37.4422452,660 Stanford Shopping CtrPalo Alto, CA 94304
K6AKMjAdCSe8xllsbyeL9Q,4.0,-79.9501368,40.4440654,4230 Forbes AveOaklandPittsburgh, PA 15213
eGE5Am6pxkMTgJ7tL0qG-w,4.5,-118.1300566,34.1444835,960 E Green StSte 330PasadenaPasadena, CA 91106
ewLhqv5In6PhmSzPDu8riw,4.0,-117.7170534,34.1069972,222 W Foothill BlvdClaremont, CA 91711
V92ePy2VVqDfy1RSsjKW6w,1.0,-72.5339135,42.3693641,145 University DrAmherst, MA 01002
LJuHxobQsa7lW0c1wttY2A,3.5,-73.966873,40.80334,258 W 109th StManhattan ValleyNew York, NY 10025
RaE9ir386tfLGwtDN9W6QA,3.5,-117.2317657,32.8646622,8657 Villa La Jolla DrLa JollaLa Jolla, CA 92037
OpNrObgtHgYijZYOU0yF-Q,2.5,-79.956892,40.44133,3716 Forbes AveOaklandPittsburgh, PA 15213
KIpFfgli70e66WWb8kcW_g,4.5,-118.4470275,34.0625214,10948 Weyburn AveWestwoodLos Angeles, CA 90024
DWFaxnDtfWzYytO8n_xBFA,3.0,-120.6708522,35.2941952,858 E Foothill BlvdSan Luis Obispo, CA 93405
of2yfWnwt2f2ml4By2xbKA,4.0,-122.2569545,37.8680197,2550 Durant AveTelegraph AveBerkeley, CA 94704
3GzfH-thOl-eJiVeK4d3VA,4.0,-117.730037,34.107566,835 W Foothill BlvdClaremont, CA 91711
2DEz094o_CZQo2m_rQSoqw,3.0,-122.299099,47.6626542,2675 NE Village LnUniversity DistrictSeattle, WA 98105
7zWoldq0uQV73BjoTM3G5w,4.0,-79.9230629,40.4338463,2034 Murray AveSquirrel HillPittsburgh, PA 15217
jPbtuDvhEhnQeuG8AU3gBQ,4.0,-80.5215439,43.4622996,120 King St SWaterloo, ON N2J 1P5
58oVEzvF6EnOmvVkXYFkTg,3.0,-79.9327212,40.4514414,5528 Walnut StShadysidePittsburgh, PA 15232
rYkRvdxHDtRD7EddbIiFKg,5.0,-74.6561453,40.3410101,Princeton, NJ 08544
dFfQWqHyH_lqCpFhNgAhlQ,3.5,-76.4871373,42.4421156,114 Dryden RdIthaca, NY 14850
Xr2S-dlyHVYkoSHJEIm9fA,4.0,-122.2627557,37.86738,2315 Durant AveUC Campus AreaBerkeley, CA 94704
4dnYY1clI8Z3Oj2oLWVwag,4.0,-79.0537134,35.9015819,University of North CarolinaDaniels Bldg, #1530Chapel Hill, NC 27599
MYerPELZImcIbqt91a3s2g,2.5,-75.1961196,39.9532864,3621 Walnut StUniversity CityPhiladelphia, PA 19104
V1hopwQhoUAQmhVLBJYBJA,5.0,-97.746238,30.287284,715 W 23rd StSte A2West CampusAustin, TX 78705
PgT1jpBuz1mmj5W28rhLHQ,5.0,-117.689169,34.091974,8915 Central AveMontclair, CA 91763
ieDFyMldCa6oGvN6ypZqjA,4.0,-95.398359,29.725551,1515 Bissonnet StMuseum DistrictHouston, TX 77005
PE87CZpK2rUDSwTXD9NS_w,3.0,-86.858594,40.417906,2 Sagamore Pkwy NLafayette, IN 47904
Tqa0-zrgmV11iQCgxDmn1A,4.0,-120.6630795,35.278799,1137 Garden StSan Luis Obispo, CA 93401
yC-i4cPTsb9zI-BKaDXnWg,2.0,-88.243664,40.1176712,205 N Neil StChampaign, IL 61820
UD53ctuW9lneGL13N7GoZA,3.5,-71.0930143,42.36324,600 Technology SqKendall Square/MITCambridge, MA 02139
PTeLIlZ0L4x99QynDms0lA,5.0,-79.0558445,35.9131996,7 Mariakakis PlzChapel Hill, NC 27514
0PnSAQI-Hjkttz4CnJ8wbw,4.0,-76.9216092,38.9574559,5508 Kenilworth AveRiverdale, MD 20737
Ci-Lqfacr2OHg6OwHEloSg,3.0,-117.234036,32.877083,9500 Gilman DrLa Jolla, CA 92093
xhvW44uHfv-sgQiJLx94iQ,4.0,-79.0541353,35.9248352,764 Martin Luther King Jr BlvdChapel Hill, NC 27514
yVxbR8zwjWp3NH6aJrSVmw,4.0,-122.297397,47.661719,2728 NE 45th StUniversity DistrictSeattle, WA 98105
l9Gp9GlyWgT57pUQVLvoug,3.0,-75.198948,39.955642,3801 Chestnut StUniversity CityPhiladelphia, PA 19104
KrFjh__SDUyJ8jeyldkeFA,2.5,-73.6913843,42.7314888,200 BroadwaySte 2Troy, NY 12180
VFslQjSgrw4Mu5_Q1xk1KQ,4.0,-122.1630475,37.442975,529 Alma StPalo Alto, CA 94301
33_97u22YKjv-QLkKUlXJg,4.5,-76.9390373,38.963723,6215 Baltimore AveRiverdale, MD 20737
cyeLERLklDlTFSGLj5N7xQ,3.5,-84.3876327,33.7764733,Tech SquareMidtownMidtownAtlanta, GA 30308
8DwDpMO5AFm4gB9sQgLPBg,2.5,-71.093904,42.3664891,222 BroadwayKendall Square/MITCambridge, MA 02139
kRK1MMD8sRvoDP4EdygEiA,3.0,-74.5927047729,40.3355534674,11 Schalks Crossing RdSte 613Plainsboro, NJ 08536
IcLm9Z1zphLnzUvrFK6aiA,3.5,-75.1782266,39.9518181,123 S 23rd St1st FlRittenhouse SquarePhiladelphia, PA 19103
-OHi0FOlVjVkdOhJQdTNOA,5.0,-79.954613,40.436508,418 Semple StOaklandPittsburgh, PA 15213
8yKr1IvQPnLLK6iRpd0Few,3.5,-73.759039,42.746176,185 Old Loudon RdLatham, NY 12110
S3QD3NEjczUXDb7qN9UOCg,4.0,-120.652987,35.287263,1631 Monterey StSan Luis Obispo, CA 93401
CVpKlqrjYCyjxnlkBCUK5A,3.0,-122.2584809,37.8656517,2467 Telegraph AvenueTelegraph AveBerkeley, CA 94704
6uc5h32bXZ7dQQ5xOeurnA,3.0,-71.1188228,42.3735514,1384 Massachusetts AveHarvard SquareCambridge, MA 02138
Q81Xj-eCVxi8mttVMn2UiQ,4.0,-75.201396,39.954261,3925 Walnut StUniversity CityPhiladelphia, PA 19104
IzY2Dgq9VG9L_odPVkzQqg,1.0,-73.954245,40.812228,416 W 126th StHarlemNew York, NY 10027
lW9v4mHbSRVwlHSTk9hSCg,1.0,-80.5087867,43.4389902,324 Highland Road WKitchener, ON N2M 5G2
Q8oXUks0GYAjz4EZ_neQ_Q,2.5,-76.490933,42.483327,40 Catherwood RdIthaca, NY 14850
JXrppn1wanENxgd6CVt9nA,5.0,-88.246989,40.099626,1401 S State StChampaign, IL 61820
Dv3MJIreiNRa6iuLe_yfkg,3.5,-76.477281,42.479743,23 Cinema DrSte CIthaca, NY 14850
mh9IzS3UX_F52pzuQxmHfQ,4.5,-79.057863,35.93203,Near Martin Luther King Jr Blvd and Airport DrChapel Hill, NC 27599
fq5AGPmKcjOIYwtm_fnNHQ,4.5,-75.194152,39.95906,3617 Lancaster Ave1st FlPowelton VillagePhiladelphia, PA 19104
TyDle42ASOpi5Z7Sc3l28g,4.0,-118.4491396,34.0731552,Ucla Campus200 De Neve DrWestwoodLos Angeles, CA 90024
mrIxMIVGqiARIsU23NQHLA,4.0,-118.2740891,34.0311448,2234 S Figueroa StSouth Los AngelesLos Angeles, CA 90015
Pk8IEhv2o0VI7avWndDuXw,3.5,-86.9232229,40.4532825,1185 Sagamore Pkwy WWest Lafayette, IN 47906
X1ICIZHZqdFQczzdSMerFw,3.0,-117.6951087,34.0952013,5091 Richton StMontclair, CA 91763
p0VLfAQRXLAS_83etfe0GA,4.5,-71.0966172,42.3638347,93 Windsor StKendall Square/MITCambridge, MA 02139
S_xSSU0IbNGFwOUTHFNtpA,3.0,-72.5134193,42.3757659,321 Main StAmherst, MA 01002
FhL1HJfAIk8BU9H6q7HxYQ,3.5,-117.2357297,32.8741609,9500 Gilman DrDept 1La Jolla, CA 92093
ga25nFjxOwYxb17n2l7GUQ,5.0,-79.068915,35.910267,300 E Main StCarrboro, NC 27510
wMKJxxh_agN85A54BdX79Q,4.0,-73.701162,42.7226176,1297 BroadwayWatervliet, NY 12189
qB8D8KlvcWfwoREPIICO1w,4.5,-72.505525,42.373108,360 College StAmherst, MA 01002
GjF9aSQzK1k_1nQfjCkb9w,4.0,-122.2584635,37.8648302,2510 Telegraph AveTelegraph AveBerkeley, CA 94704
gU2En1DaXg6cRWE0-Tb8Yw,2.0,-71.4009616,41.8298347,288 Thayer StCollege HillProvidence, RI 02906
TKkKRrMcP0R_VPO8QKR7YQ,4.0,-79.0722608,35.9111389,101 E Weaver StCarrboro, NC 27510
cXjr3JfZuNvKLC8JWOPE2Q,5.0,-79.9227888,40.4341646,2017 Murray AveSquirrel HillPittsburgh, PA 15217
LYdoHmDxPEN8KokfR_2C5w,4.0,-71.0919319,42.3644579,Technology SquareKendall Square/MITCambridge, MA 02238
_Ee3w-GvLi5CCjpauRIepA,5.0,-95.3971624,29.7070648,1515 Holcombe BlvdMedical CenterHouston, TX 77030
TZb3l8Za-V_fVlTlX1JYdg,2.0,-73.9575329,40.8116485,1290 Amsterdam AveHarlemNew York, NY 10027
v0ZeYsUI4nDM1Bpokj9ysg,3.0,-122.3131796,47.6583576,4201 University Way NEUniversity DistrictSeattle, WA 98105
jI4yOYZ7nZt1Yv_9GolxYg,3.5,-71.1209446,42.3724175,91 Winthrop StHarvard SquareCambridge, MA 02138
T91XfCQKgvg9KsZnrLexig,1.0,-73.9656602,40.8039211,535 W 110th StSte 1EManhattan ValleyNew York, NY 10025
xcJa7SUk9rSQbxkErstfew,3.0,-72.533994,42.37158,65 University DrSte 5Amherst, MA 01002
sY78l10spysPY4vpT9qqsg,3.0,-83.7458059,42.2840998,Kerrytown Market407 N Fifth AveKerrytown Ann ArborAnn Arbor, MI 48104
jTPr0dFk2JgGYdDiIGro3Q,3.5,-83.7399823,42.2787103,715 N University AveDowntown Ann ArborAnn Arbor, MI 48113
UVPVAtsAiBOtw-BI_W9kTw,3.0,-118.445297,34.06257,Weyburn Ave and Westwood BlvdWestwoodLos Angeles, CA 90024
pSPsT1hggiw5RhFR1bSqSw,3.5,-122.2584566,37.8680235,2515 Durant AveTelegraph AveBerkeley, CA 94704
yuO-Qy1QQVumIhO0ijvl3w,3.0,-75.196776,39.955066,3701 Chestnut StUniversity CityPhiladelphia, PA 19104
MYkGOtjw_e0F3xr8ZxUA1A,3.5,-71.414454,41.825804,32 Exchange TerDowntownProvidence, RI 02903
02A7EMn1GbOtsX3w8NwTAA,3.5,-117.717543,34.096334,232 Yale AveClaremont, CA 91711
bccVcVv80u3Rqf3CiPM22A,2.0,-122.2591744,37.867937,2344 Telegraph AveTelegraph AveBerkeley, CA 94704
nXiu6PUFLtyJamPdmbKU8Q,4.0,-122.3108357,47.662056,4515 16th Ave NEUniversity DistrictSeattle, WA 98105
paEiq317vKj7-CEiGWUsbw,5.0,-71.1024004,42.3637162,Green Street Studios185 Green StCentral SquareCambridge, MA 02139
nrY4PxuZFND6Y1Tm4xNFbQ,5.0,-120.6587,35.2828,P.O.Box 4404San Luis Obispo, CA 93403
JDMMLQZbDhCtEytY9L5r0A,4.0,-86.918435,40.44163,1540 Northwestern AveWest Lafayette, IN 47906
3USg4W1p6dwlD-1_Op0C2A,5.0,-75.179174,39.952614,2400 Chestnut StRittenhouse SquarePhiladelphia, PA 19103
Vtst8E8txms-PGMv6AETnw,4.5,-79.0544747,35.9147806,137 E Rosemary StChapel Hill, NC 27514
BR2i3cvCs5ymmeAQ2Ook9A,3.5,-118.134674,34.144808,761 E Green St Ste 2PasadenaPasadena, CA 91101
zCKJ04uIdbI7c2JdXp-cHA,2.5,-73.7178307,42.7001449,444 BroadwayAlbany, NY 12204
o-q9Uy3VUV_mrOBhIC48tg,3.0,-75.2028565,39.9533287,224 S 40th StUniversity CityPhiladelphia, PA 19104
U4P9VW2ox8PsypWQsZzqng,4.5,-71.1041555,42.3655004,15 Western AveCentral SquareCambridge, MA 02139
xDgb-HSWJ_2A23iADT9e1w,3.0,-95.417191,29.720906,2506 Robinhood StWest UniversityHouston, TX 77005
hNKYyGv-wlB_WTiSX1sKcQ,3.5,-73.69179,42.7287696,55 Congress StTroy, NY 12180
KwoyRm7KFG7dHw-NbKla2w,4.5,-83.7417441,42.2778494,607 E William StDowntown Ann ArborAnn Arbor, MI 48104
WFgbeIrQDr1x7lyp9Kf4gQ,3.0,-75.192277,39.957869,101 N 35th StPowelton VillagePhiladelphia, PA 19104
JwETCi-1Ix4SKg4cGTwxQQ,4.5,-71.1207307,42.371861,56 JFK StreetHarvard SquareCambridge, MA 02238
_BELNPTsqzNRi1IPY1_Cvw,2.0,-122.314189,47.66413,4732 Brooklyn Ave NEUniversity DistrictSeattle, WA 98105
zNxOVDKl3WYNFZDjtXAc6w,3.5,-71.1215509,42.3725306,8 Eliot StHarvard SquareCambridge, MA 02138
4hf8Iqe-7qKlt2jIS5l1SA,4.0,-79.9435043,40.458827,5105 LIberty AveBloomfieldPittsburgh, PA 15224
n1yu-g8KobLRt81pNNskhA,2.0,-118.2772413,34.0261891,2810 S Figueroa StSouth Los AngelesLos Angeles, CA 90007
KCVy3xDOhMZBCbbLRsXvVw,4.5,-71.4094779,41.82843,125 N Main StCollege HillProvidence, RI 02903
zXNBJE2m-6KBA4jR9ja_8A,4.0,-118.442165852,34.0749147815,UCLA North CampusWestwoodLos Angeles, CA 90095
GsoYOQQ_7L9amG78lucepQ,3.0,-118.1302377,34.1457411,950 E Colorado BlvdSte 203PasadenaPasadena, CA 91106
9YCh_eHXQy5ozBO1p38aPw,3.0,-76.8952692,38.9976006,7810 Walker DriveGreenbelt, MD 20770
mN4GaI7KdRKZ253EgvpW_A,2.5,-76.9796743,38.9841835,1820 University Blvd EHyattsville, MD 20783
PlLsdaWKn6VzoSrT9BoEcA,4.5,-118.1303658,34.1446887,973 E Green StPasadenaPasadena, CA 91106
grtRbOhjogmnTXToPwFoNQ,4.0,-79.92187,40.4377489,5824 Forbes AveSquirrel HillPittsburgh, PA 15217
AOulzsSHnppyZf10dl4n0g,1.5,-118.4462369,34.0649849,100 UCLA Medical PlzSte 205-210WestwoodLos Angeles, CA 90095
Ln7BSlJKPmekHdeMxCqclA,5.0,-71.1216153,42.371948,22 Eliot StHarvard SquareCambridge, MA 02138
1AuS2TA0gBLYiMh7s1rwfQ,3.5,-117.6909282,34.1066586,2016 W Foothill BlvdUpland, CA 91786
dXO0TAdU8RCDw54r2MQLrA,3.5,-73.9656807,40.8051353,2876 BroadwayMorningside HeightsNew York, NY 10025
xRrnli_Yg_Dvu2hBHRfPTA,4.0,-80.4342,37.2337,801 University City BlvdBlacksburg, VA 24060
d_KFya2Ga7jYBk0Da84Qdg,4.0,-83.7373601,42.2901403,1149 Broadway StAnn Arbor, MI 48105
PiiDzC9wPzfVA-xyTXC0GQ,3.5,-122.1673116,37.4227062,554 Salvatierra WalkStanford, CA 94305
IIsJN_ilLI36zGAF3SMCCQ,3.5,-73.9652178,40.8014263,964 Amsterdam AveManhattan ValleyManhattan, NY 10025
JAlTNEkW0e3KE0vAhoR_YA,4.0,-84.3890788,33.7711566,610 Spring Street NWDowntownAtlanta, GA 30308
h_we4E3zofRTf4G0JTEF0A,3.0,-122.25894,37.863919,2556 Telegraph AveUC Campus AreaBerkeley, CA 94704
ehaoreB8IzKY8KvRGqxcUA,3.5,-79.9565895,40.4412411,214 Oakland AveOaklandPittsburgh, PA 15213
_jsJNMbVe6FbUHSDD1RZGA,2.5,-76.910957,38.998768,6000 Greenbelt RdGreenbelt, MD 20770
JT23bhY1mFme-EJdHjeMow,3.0,-122.2603908,37.8756447,1878 Euclid AveUC Campus AreaBerkeley, CA 94709
fFsEJQB2HhpfXV48ioxzXw,3.5,-73.9562943,40.8029602,2104 Frederick Douglass BlvdHarlemNew York, NY 10026
KpL73tUI4oKr9uW7SHD7mA,3.5,-120.663888,35.278955,725 Higuera StSan Luis Obispo, CA 93401
LLZBXU2OKVKte-MZlV5VOA,3.5,-71.1211114,42.3714347,65 JFK StHarvard SquareCambridge, MA 02138
F1VQ_kSwdOu0Y5x3bkLZiw,5.0,-83.74584,42.280532,125 S 5th AveDowntown Ann ArborAnn Arbor, MI 48104
I4hzlqf5JJAPSYygp1AyoQ,2.5,-73.9528646,40.8071966,210 St Nicholas AveHarlemNew York, NY 10027
6Ax2uEsGQCE-2Oxqoe8BWQ,4.0,-71.0835170746,42.3632529723,350 3rd St In Kendall SqKendall Square/MITCambridge, MA 02142
EdB_E_uQgHvPjlEdGOOgwQ,5.0,-118.1364837,34.142357,200 S El Molino AveSte 6PasadenaPasadena, CA 91101
HyxwnKF8aiYor-pMP5J65A,2.0,-95.400419,29.702052,1301 Braeswood BlvdMedical CenterHouston, TX 77030
2-cnVXiH4FOeibr6wteGOg,5.0,-97.7476634,30.2790484,1404 West AveBldg B, Ste 2000DowntownAustin, TX 78701
DGiylpvVZytoSIqSsVH5HQ,3.5,-76.95954,38.966693,3501 East West HwyHyattsville, MD 20782
rVBicVN6W_p9LyWcLyscgw,3.5,-76.5054061,42.446766,311 3rd StIthaca, NY 14850
WKj7NYkcjY79SvaqIunzVw,2.5,-80.4154,37.2297,204 Draper Road NWBlacksburg, VA 24060
EHxE_FVNr-eYbZwwy_H13g,3.0,-117.7191507,34.0962215,232 N Indian Hill BlvdClaremont, CA 91711
vwcikFtT-pmZOMFA1ARTTA,5.0,-118.268302,34.018666,3200 Maple AveSouth East LALos Angeles, CA 90011
hMbqc2RGNpTTM39DU6TCpg,2.0,-83.7465827,42.2804358,214 E Washington StDowntown Ann ArborAnn Arbor, MI 48104
jsUTsVpjI5QPtPfaciENHg,3.0,-71.0968574,42.3633061,781 Main StKendall Square/MITCambridge, MA 02139
JdG5e8zfYTu6_P29lQ-Wig,4.0,-72.520517,42.375703,28 Amity St1-EAmherst, MA 01002
xxiHB_oOFeTXKCzMxBOCdg,2.5,-75.2039977,39.9574379,4049 Market St.University CityPhiladelphia, PA 19104
NR8k-wkG1rObtnPIJTKMvw,3.5,-88.2317371,40.101862,500 E Peabody DrChampaign, IL 61821
dxoj-1BAoajy5Slc1mMvbw,5.0,-122.178095,37.434723,1101 Welch RdSte A-7Palo Alto, CA 94304
YRjZNZE_TOgjFja5bE02hA,5.0,-73.7252957,42.7374707,143 Troy-Schenectady RdWatervliet, NY 12189
rwLqUals7Xt_i6bw3zEEDA,1.5,-97.7416415,30.2946426,2815 Fruth StUniversity of TexasAustin, TX 78705
dUPFQ2eGe1pk6eLnIqCbTw,4.5,-73.6887,42.681891,235 N Greenbush RdTroy, NY 12180
sSmPTPgVpV735go2nWyDjQ,4.5,-79.074691,35.910263,200 W Main StCarrboro, NC 27510
I20o1h6gEPTl_dY1dgwxXg,2.0,-122.1610427,37.4402229,795 El Camino RealPalo Alto, CA 94301
Klbm92lwLF0xkiSIuD1XBQ,2.5,-120.6504145,35.2897393,1951 Monterey StSan Luis Obispo, CA 93401
Cs7Jj_7dGq79GJ7JsqFb8w,5.0,-118.4367551,34.0631451,WestwoodLos Angeles, CA 90024
V7bdnPpfySL1tyy5ZqdQVw,4.0,-95.418076,29.726096,5203 Kirby DrWest UniversityHouston, TX 77098
2Ad-D-B2C3w22mMmpuZgZQ,5.0,-118.275699,34.023537,400 W 30th StSouth Los AngelesLos Angeles, CA 90007
vpxUqSMqPJyhTisCDSG1_Q,4.0,-80.4151425,37.2304222,235 N Main StBlacksburg, VA 24060
6wlZNtRPwjHlwfJCizBs4g,2.5,-71.1186501,42.3732861,24 Dunster StHarvard SquareMid-Cambridge, MA 02138
Yiv2ECw7V16NIuiKbTetng,2.0,-118.1296977,34.1445827,995 E Green StSte 506PasadenaPasadena, CA 91106
bmAI2Sitz2lxntBWo1OO5g,3.0,-71.408849,41.823038,36 Pine StDownCityProvidence, RI 02903
POyN8waR0OzzZcsuhN0QOQ,4.5,-79.0219388,35.9068246,1115 Envron WayChapel Hill, NC 27514
6ceAEGAR9tegZA-kHPdfRA,3.0,-83.7472786,42.282285,201 N 4th AveKerrytown Ann ArborAnn Arbor, MI 48104
E--S5uEvbg11E8PC2GCYsA,5.0,-73.9518531,40.8087196,270 W 123rd StHarlemManhattan, NY 10027
1S-gum9ac37-pF4qA_CY8Q,3.5,-79.025257,35.924475,1720 Fordham BlvdChapel Hill, NC 27514
-KedUrm_YGt2s4Q9p_Q6Mg,4.5,-72.5198894,42.3780657,161 N Pleasant StAmherst, MA 01002
Lhsfy2uf8LyhMYgjbop7Sw,3.5,-79.949059,40.454009,4740 Baum BlvdBloomfieldPittsburgh, PA 15213
DXDMQ2YQ3A7JlclIT_KgDg,4.5,-120.660092,35.290659,584 California BlvdSan Luis Obispo, CA 93405
5eFcQAl8BkWB6gtrZN3NKQ,4.5,-97.741752,30.283729,Dobie Center Mall - Food Court2025 Guadalupe StThe DragAustin, TX 78705
isp0obbx6P3xHRaH9EBkDg,3.5,-95.416652,29.7165439,5515 KelvinWest UniversityHouston, TX 77005
d_Z92qQ3deaw1zK6lLFFTQ,4.0,-122.1585488,37.4381851,855 El Camino RealSte 120Palo Alto, CA 94301
RlSnnS3SkjVumfu7kzPLCg,4.0,-117.719160318,34.0967556115,300 N Indian Hill BlvdClaremont, CA 91711
Ot4XBIX8bIxYeLQX3MLDvA,2.5,-122.187447,37.4323228,1600 Sand Hill RdPalo Alto, CA 94304
tXbma_O3bO8LUfigOh1CdA,2.5,-73.7579081,42.7570716,899 New Loudon RdAlbany, NY 12205
OoW8Q8W6OsTKBkk5sJGW_Q,4.5,-120.661708,35.281247,969 Monterey StreetSan Luis Obispo, CA 93401
dVBp-ayxdvwG95BYfqKwDw,4.0,-88.2071521,40.1112565,127 Lincoln SqUrbana, IL 61801
BhUXAnkoiRYEHBUsFLUaQA,1.5,-73.6959053,42.7344162,44 Lower Hudson AveTroy, NY 12183
8RosTB42p7JsAWEc2Bx27A,2.0,-97.742851,30.288094,2405 NuecesSte HWest CampusAustin, TX 78705
vkMzqm0kcyG-_QJR8r6elw,2.5,-76.910957,38.998768,Beltway Plaza Mall6000 Greenbelt RdGreenbelt, MD 20770
NrSikK-10UHAd31l9wa65g,5.0,-73.9649672,40.8067573,601 West 114th StreetMorningside HeightsNew York, NY 10025
qQouzhAOkppSq10tRI0nxA,2.0,-79.0336856,35.9298806,1502 E Franklin StChapel Hill, NC 27514
JQPvIx1aJVu_ZNoZ5Uqsbg,3.5,-86.895002,40.418922,200 Main StLafayette, IN 47901
EQOZh5sP-Ipo_JefIKAVqg,3.5,-76.5094249,42.426554,315 Elmira RdIthaca, NY 14850
aFbK2N4jB72avKpooMpSOw,3.5,-122.2596317,37.867587,2430 Durant AveTelegraph AveBerkeley, CA 94704
aPja2Bns3PuqGWv-bNWOXw,4.5,-86.9347477,40.4643452,1570 Win Hentschel BlvdWest Lafayette, IN 47906
thDdjYlOd6Vide3mszGTRw,4.5,-118.4466284,34.061943,1008 Broxton AveWestwoodLos Angeles, CA 90024
L-8y-em67TVwmtEoQw2Xqg,4.0,-122.2519943,37.8695199,2299 Piedmont AveUC Campus AreaBerkeley, CA 94720
rWDZv7FPuIlTfosY4gZ_lA,4.5,-86.961339,40.457806,2801 Klondike RdSte BWest Lafayette, IN 47906
gBfNTd7TEyMEq7_quWNYnw,1.5,-118.132782,34.143931,99 S Lake AveSte 100PasadenaPasadena, CA 91101
Ws5jW7K4OgADEly5cCmsXg,3.0,-95.415488,29.716902,2400 Times BlvdWest UniversityHouston, TX 77005
RIj_iQP-GvD-8mkUcO7ThQ,5.0,-117.6982354,34.0924357,4849 Arrow HwyMontclair, CA 91763
J0_ihDCYiXm97XVzbx0Drg,2.5,-75.1953934,39.9583587,Powelton VillagePhiladelphia, PA 19104
PP0h6tNnk2imPnznb0hSpw,2.0,-84.3829591,33.7814681,125 10th St NEMidtownAtlanta, GA 30309
HBzT2Yld4Pdh1QihBRQy_Q,1.5,-74.6610114,40.3507173,30 Palmer Square EPrinceton, NJ 08542
uK2oeQSLdKN1JuhO-Qv7gA,3.5,-83.7427187,42.2794081,529 E Liberty StDowntown Ann ArborAnn Arbor, MI 48104
-0iqnv7MjKrgh7Q7bYRlUQ,4.0,-71.1189908,42.3741343,1432 Mass AveHarvard SquareCambridge, MA 02138
AxVbvx_WeSKJFOCd8lthIw,4.5,-122.263544,37.8661632,2240 Channing WayUC Campus AreaBerkeley, CA 94704
G17QUujz-e6oWV_-LQc4Ag,3.0,-74.6754345,40.302953,311 Nassau Park BlvdPrinceton, NJ 08540
G_ly5CisletsxEoJImPBhw,2.5,-88.207883,40.111028,209 S Broadway AveUrbana, IL 61801
qXh_8dyoLpniX1pv5jquOA,3.5,-72.5397411,42.3634568,426 Russell StHadley, MA 01035
3frikpuC7Cw_C60TMtvVVg,4.0,-88.2387211,40.1169798,118 N 1st StChampaign, IL 61820
r-dZCCNtld2ik0QRoTwuUQ,3.5,-83.740612,42.27942,233 S State StDowntown Ann ArborAnn Arbor, MI 48104
is_3J5wgSNx142iNaNrSHQ,3.5,-71.1182373,42.3720326,Harvard Sq71 Mt Auburn StHarvard SquareCambridge, MA 02138
3frFidAcPVYAFB2RxxkIdA,3.0,-79.948855,40.4448599,412 S Craig StOaklandPittsburgh, PA 15213
os2nfVL-eiIXzBFHYMZCLw,2.5,-74.5979036,40.3654694,4095 US Highway 1Monmouth Junction, NJ 08852
Fbycyr3KEjDQ4wO9AStmvQ,3.5,-79.9403158,40.4562317,5242 Baum BlvdBloomfieldPittsburgh, PA 15224
GHWV5BHXfuNB4HkCcRHh0A,4.0,-117.243798,32.887731,Torrey Pines Gliderport2800 Torrey Pines Scenic DrLa Jolla, CA 92037
qsBMwn3kTqQKde3NHKrPRg,4.5,-117.717539,34.096022,220 Yale AveClaremont, CA 91711
iTvZXijXHzz8VCWyIP0WoA,3.5,-71.1157917,42.3721128,1 Bow StHarvard SquareCambridge, MA 02138
_ewEvGkaCtNMzhqgg7STLA,3.5,-118.444907,34.060387,1116 Westwood BlvdWestwoodLos Angeles, CA 90024
7oC0qcOg-XSt4Xo1_u-9XA,3.5,-72.5310401,42.384917,RR 116Amherst, MA 01002
zKdJDuM-DWlK-qqH6YGbjQ,3.0,-71.4009732,41.8299308,290 Thayer StCollege HillProvidence, RI 02906
FZ3M3K7yIvIj770TE4JpKw,3.5,-97.740901,30.28343,Dobie Mall2021 Guadalupe StUniversity of TexasAustin, TX 78701
HqPPWAttTuBpDoKnAQt4Vw,3.0,-80.4329917,37.2316838,901 Prices Fork RoadBlacksburg, VA 24061
kj44upIDaMIPlYvsuweP4g,3.5,-88.2335202,40.1102514,401 E Green StChampaign, IL 61820
3rfoWwB2LsG6TSbmKk3C-w,4.0,-122.3130907,47.6616493,4510 University Way NEUniversity DistrictSeattle, WA 98105
Ib8YzGDYkaf7n4EMQ3-cRg,4.0,-76.9562888145,38.9662661213,2970 Belcrest Center WySte 103Hyattsville, MD 20782
PzNLnRud1tIUqJQiwYanIw,4.5,-117.22631,32.882894,9850 Genesee AveSte 720La Jolla, CA 92037
pAo-FVj_Kcorz8dGJP5-eA,4.0,-122.3131914,47.658175,4147 University Way NEUniversity DistrictSeattle, WA 98105
RT-NHBvJIxGfZWtIeaHJwA,5.0,-117.688637,34.093204,8801 Central AvenueSuite DMontclair, CA 91763
KnBHJZ_YlHy0OCem0Pabmg,1.0,-118.4452624,34.0632149,924 Westwood BoulevardSte 850WestwoodLos Angeles, CA 90024
G7aOYRU2rQLrqdzjaKOl4w,3.0,-118.2839022,34.0250376,3333 S Hoover StSouth Los AngelesLos Angeles, CA 90007
5-mzFAIGxO0nATMxjxi4fw,3.0,-117.2362026,32.8641868,4545 La Jolla Village DrSte D17La JollaLa Jolla, CA 92037
CxOApc8E_VnFvwYDbaIoSw,4.0,-76.508666,42.4426201,400 N Meadow StIthaca, NY 14850
2ERnU_ihjdwusbdlXSf3gg,3.5,-79.9347122,40.4511463,733 Copeland StShadysidePittsburgh, PA 15232
KCjZ4YY4lBsU9t53AMussw,3.5,-122.259839,37.86799,2433 Durant AveUnit CTelegraph AveBerkeley, CA 94704
03v8CXLbnGrHB-AxEV-8rw,4.0,-74.6606725,40.3143033,3535 US Rt 1Ste 177Princeton, NJ 08540
LW1svH-IFU7LAgK1giqi7Q,3.5,-76.4874828,42.4421482,100 Dryden RdIthaca, NY 14850
ocE_LWT9sfarhZ5IlB29sg,3.0,-118.1253745,34.1445178,1214 E Green StSte 104PasadenaPasadena, CA 91106
V5jiPApAZCxLrmmSH8fXxg,1.0,-118.1300566,34.1444835,960 E Green StSte 214PasadenaPasadena, CA 91106
tZT_0yAeFxuihVnGXoCbWQ,4.5,-88.2420999,40.116963,120 N Walnut StChampaign, IL 61820
gGvNgShksetPoimyKV8I9Q,3.5,-84.3843138,33.7804765,942 Peachtree StMidtownAtlanta, GA 30309
vAVMaIJET-OI39DyuupAaQ,5.0,-76.915052,38.995148,5711 Seminole StCollege Park, MD 20740
rCZx7hy61-PcGcTJ00y1Zg,4.0,-71.1005369,42.3647845,55 Bishop Richard Allen DrCentral SquareCambridge, MA 02139
IEWrs3H865vTkgPY_NSBPA,3.5,-118.127288,34.144862,1121 E Green StSte 1PasadenaPasadena, CA 91106
0h6jVwdRV1tiF4h21vkMDw,4.0,-83.7466605,42.2823836,211 E Ann StKerrytown Ann ArborAnn Arbor, MI 48104
7Xd_v1CzsQSdW9XfUg_YYg,2.5,-74.6507263,40.363321,Princeton Shopping Center301 N Harrison StPrinceton, NJ 08540
dTn4zWESE49YRd5Mox9MCg,3.0,-122.1614915,37.4281395,Stanford Campus Arbuckle Dining Pavilion655 Knight WayStanford, CA 94305
6rL53UVwKjD8MwY3is-U4w,4.5,-120.6607596,35.28111,1001 Higuera StSte ESan Luis Obispo, CA 93401
7QfMpiTnQIN8pSxfKRMGWQ,3.0,-76.4359731,42.4560854,987 Dryden RdIthaca, NY 14850
YRfDdBgWS4T80oJfKmVThA,3.0,-73.9536792,40.8069523,2217-23 Frederick Douglas BlvdHarlemNew York, NY 10026
mklo4H47YWK7f18YXTCEoA,4.0,-88.230154,40.110553,604 E Green StChampaign, IL 61820
KI2rgxOURuqU_i8Nc7DlTQ,3.5,-122.3131105,47.6620597,4525 University Way NEUniversity DistrictSeattle, WA 98138
7R0qrKQbwkbRQNFGc5tDcQ,1.0,-122.17,37.42,Palo Alto, CA 94309
rqn5hFLMJVHaQvfu2Czl5A,1.0,-72.55014,42.355961,Hampshire MallHadley, MA 01035
yO-VbEBYrBxhPXB6v2uVig,4.0,-80.5274971,43.4980824,550 King St NWaterloo, ON N2L 5W6
dWeGjqmrjfgfTRl-zejY_g,3.0,-73.953343,40.811452,125th StreetHarlemNew York, NY 10027
UTrqsP-oQrwoIOmBv_Jtzg,4.0,-88.2218905,40.1069815,1103 W Oregon StUrbana, IL 61801
8E91FwdmdGr1ReeqQ2c9kQ,3.5,-122.2980601,47.662444,2621 NE Village LnUniversity DistrictSeattle, WA 98105
XpWWL9gv34YsmYOEh-OVJw,5.0,-74.6620003,40.3542647,PO Box 554Princeton, NJ 08542
APzU2CBC7Gzwa2RTnUdAAQ,3.5,-73.9673445,40.8011051,250 W 106th St2nd FlManhattan ValleyNew York, NY 10025
dmZxokXSV_X6eXUxxovKjw,3.0,-118.4453835,34.066631,757 Westwood PlzWestwoodLos Angeles, CA 90095
5JCVMNC5Bpvcr5YrKGZiUA,5.0,-71.4050173759,41.8264994363,20 Prospect StCollege HillProvidence, RI 02912
dRfRGXKqZwWNQtQqb5eVlg,3.0,-76.5092712,42.4423151,712 W Court StIthaca, NY 14850
Tapp7WLf4Fnw6Lcd6CK7Zg,4.0,-74.6668624878,40.3318568035,Einstein DrPrinceton, NJ 08543
l_pR3x7v2mvE3luVdmGuoQ,3.0,-79.947166,40.45467,4808 Baum BlvdBloomfieldPittsburgh, PA 15213
7L7frgS9I4KeTkqPXh7w2A,5.0,-79.9489025,40.4450473,406 S Craig StSte 3OaklandPittsburgh, PA 15213
Nzn4B6Y-Rj2QOhSe7UTMzw,3.5,-122.1585488,37.4381851,Town & Country Village855 El Camino RealPalo Alto, CA 94301
3Z9AKKiknHJ-VdZZzbH6fA,3.0,-118.4453057,34.0615936,1046 Westwood BlvdWestwoodLos Angeles, CA 90024
K8v4s2WYnnYr7ouRSpC1rA,4.0,-95.4166091,29.7191537,2424 Dunstan RdSte 100West UniversityHouston, TX 77005
AiUnrpNt-IC6kJxJxCxesw,4.5,-71.1144842,42.3747555,32 Quincy StHarvard SquareCambridge, MA 02138
Ev04GeSgAXwKsO1qJiO9xQ,2.5,-73.9561224,40.8139108,1346 Amsterdam AveHarlemNew York, NY 10027
jfPM39QqdisYIRW-IOXbwg,5.0,-122.157712,37.437384,50 Embarcadero RdPalo Alto, CA 94306
MhyCVeRdAlXaCfWlti9GDw,3.5,-83.7486732,42.2786758,326 S Main StDowntown Ann ArborAnn Arbor, MI 48104
NYMUlUYYEb3H0nKsauj-yw,3.0,-79.9571801,40.4416152,128 Oakland AveOaklandPittsburgh, PA 15213
asCPMMAA1wW3GJvrPA4fTA,3.0,-88.2217733,40.1060728,Lincoln Square Mall300 S Broadway AveUrbana, IL 61801
FV6eFDgs1MBX2sGcJLvFcw,5.0,-120.653952,35.285684,1502 Higuera StSan Luis Obispo, CA 93401
7u1vzX2lSme1gO7dWFUBAg,4.0,-73.706727,42.7140051,637 3rd AveWatervliet, NY 12189
MTGpGdDh8oVpDlVgigJo5Q,5.0,-76.472838,42.437573,903 Mitchell StIthaca, NY 14850
DkQHkPtzUG7ydYUT5xDGKA,2.0,-120.653331,35.287476,1604 Monterey StSan Luis Obispo, CA 93401
a8ZLRx-NyaT1RtcykR2DCA,4.0,-71.0829622,42.3647308,318 3rd StKendall Square/MITMid-Cambridge, MA 02142
Rk7ktD5511RCkO_BDn7_Sg,3.0,-117.234036,32.877083,9500 Gilman DrLa Jolla, CA 92093
GePFksdGE8VvGss4EnHNng,1.5,-83.7474765,42.2790244,314 S 4th AveDowntown Ann ArborAnn Arbor, MI 48104
ZhAPdzBxhvvNInbhEPZ6jw,5.0,-75.1890822,39.9576111,N 33rd and Arch StPowelton VillagePhiladelphia, PA 19104
Nhw7on5kevbomM-GzRXy_A,5.0,-97.7429151535,30.2860029502,The University of Texas At Austin2222 Rio Grande St, Ste 200-CWest CampusAustin, TX 78705
O0fRYVNtltLuywph7VQdSQ,3.0,-84.38731,33.783021,1041 W Peachtree St NWMidtownAtlanta, GA 30309
3ayb8-X8BvPyFh_E6FLyyw,3.5,-73.9676149,40.8009294,2756 BroadwayManhattan ValleyNew York, NY 10025
gLGJ6R19L5zLdvgJ_HXDSA,5.0,-122.1626387,37.4397409,Palo Alto Medical Foundation795 El Camino RealPalo Alto, CA 94301
d1PfS_bozULtBY4PjF3D-w,4.5,-72.519611,42.376188,31 N Pleasant StAmherst, MA 01002
roUkmDT_yPJcF0aF_OEq8Q,5.0,-84.407403,33.776657,King Plow887 W Marietta St NW Studio CAtlanta, GA 30318
MUgtAiJ5MhRrWlqPG7LURw,2.5,-120.6654437,35.2864307,1000 Olive StSan Luis Obispo, CA 93405
nL50Y3Cw1TxdqYWJUe-I7A,3.0,-117.704011,34.107552,665 E Foothill BlvdSte JClaremont, CA 91711
PmgfJ4OakG2c1bKRd0HZUg,3.5,-76.5257007,42.435511,In The Ithaca Mall40 Catherwood RdIthaca, NY 14850
uDQvEdopT-OYS1zeAJmU4Q,3.5,-117.703306,34.107867,697 E Foothill BlvdSte CClaremont, CA 91711
-DpB583IrJuH1ehHu-U8sw,4.0,-72.512491,42.375872,383 Main StAmherst, MA 01002
9bbwPNPYXqP83reSK-hASg,3.5,-75.198972,39.9527487,238 S 38th StUniversity CityPhiladelphia, PA 19104
Cs-UYUF3mpSavDD4FELfTw,4.0,-84.3983965,33.7786012,Georgia Institute Of Technology315 Ferst DrGeorgia TechAtlanta, GA 30318
Xv8BitlDf4SY1B6Uhvcsag,5.0,-118.129779,34.145152,33 S Catalina AveSte 104PasadenaPasadena, CA 91106
X7SaMeMdYa76zmavVc2YUA,3.5,-80.420923,37.234966,211 Prices Fork RdSte 200Blacksburg, VA 24060
uKB1eXRNNBq2w4-wUkusZA,3.5,-71.1216172,42.3725954,10 Eliot StHarvard SquareCambridge, MA 02138
sKtd-gTrMMqamwN0XtS88Q,4.5,-122.2587722,37.8658677,2454 Telegraph AveTelegraph AveBerkeley, CA 94704
Mbt4xnW-f_p-iwS_-16SxQ,2.0,-83.7487548,42.281416,116 W Huron StDowntown Ann ArborAnn Arbor, MI 48104
a8-3NAyg8WQ1gVY0RFDMcg,3.5,-84.4095612,33.7786298,964 Marietta Street NWAtlanta, GA 30318
FWadSZw0G7HsgKXq7gHTnw,2.5,-122.2598181,37.8751965,2505 Hearst AveSte BUC Campus AreaBerkeley, CA 94709
H-lXyHlSlaLBOepN_Qvm8w,4.5,-80.5289459,43.5040487,615 Davenport RoadWaterloo, ON N2V 2G2
INaAXfbIXtXTB3sSDX8Wow,3.0,-71.121916,42.374285,52 Brattle StHarvard SquareCambridge, MA 02138
uC9M9YlhgqqT5E-bRgCzKA,4.5,-73.9527752,40.8056367,174 St. Nicholas AveHarlemManhattan, NY 10026
gOp_w9qmLq6B8YRypTPp8g,2.5,-122.2600721,37.8751579,2505 Hearst AveSte GUC Campus AreaBerkeley, CA 94709
Sn6Urb4rcxLD1nFZibNdfQ,2.5,-72.53444,42.367729,175 University DrAmherst, MA 01002
aEeSQaZ1mFinIhgf56rRVA,3.5,-76.4406043,42.4540655,933 Dryden RdIthaca, NY 14850
BEeapkA6bw4HMZe7b2z7aA,5.0,-88.231623,40.11606,503 E University AveChampaign, IL 61820
UCILwBpGs6a11F9qPKYeQg,2.5,-83.7419712,42.2794771,539 E LibertyDowntown Ann ArborAnn Arbor, MI 48113
mOOkGzn04BeeeJX7JjgN7Q,4.5,-71.121609,42.374242,49 Brattle StHarvard SquareCambridge, MA 02138
WvGFYEx2TsOXI4he9eau3w,3.0,-117.236759663,32.8799656015,UCSD Price CenterLa Jolla, CA 92093
AKfHinPZ5vdPdHRzpvSWtw,3.5,-71.4122337,41.8231881,212 Westminster StDownCityProvidence, RI 02903
eFJyH-oT6QC_1HapggVn5g,3.5,-118.131835,34.142752,180 S Lake AveSte 425PasadenaPasadena, CA 91101
Kat5P_HtfuBkL5dmEsEhtg,2.5,-71.0849514,42.3622265,250 Main StKendall Square/MITCambridge, MA 02142
9YeSEzr8HZMCuQlAyr8FPw,4.0,-122.3131252,47.6625396,4543 University Way NEUniversity DistrictSeattle, WA 98105
YGpr3udYhF_gHw4v7su3pg,5.0,-122.2991056,47.6633073,University Village2623 NE University Village StUniversity DistrictSeattle, WA 98105
PSL_ln24XidWdTjnXgmkNQ,3.5,-95.4153001,29.7161863,5510 MorningsideSte 120West UniversityHouston, TX 77005
EBoqt-NMtrKicAfhckAatA,4.5,-75.202053,39.963166,3963 Lancaster AveMantuaPhiladelphia, PA 19104
0ggseJ7x1t-I-I8GA6knjw,4.0,-72.519529,42.376678,63 N Pleasant StAmherst, MA 01002
ihLn7WzSFjebb3m-5eYFaQ,5.0,-120.6649178,35.2882372,356 Santa Rosa StSan Luis Obispo, CA 93405
1c4j2NhUZsfA0gt6B6_cBA,3.0,-118.4470265,34.0629729,936 Broxton AveWestwoodLos Angeles, CA 90024
NY23mrH0l-xJ5zjNO-Xl3g,5.0,-97.743924,30.276358,1300 Guadalupe StSte 250DowntownAustin, TX 78701
gNMAEldBHzkUSKNS9adw0g,4.0,-75.19993,39.96244,1 Liberty PlMantuaPhiladelphia, PA 19103
ptaI45_CQ-FFw5_r85xUdg,3.5,-84.386973381,33.7804314658,950 W Peachtree St NESte 215MidtownAtlanta, GA 30309
qe7q9cYNJscE5MwDNTkcAQ,4.0,-122.313087,47.6629684,4730 University Way NESte 104University DistrictSeattle, WA 98105
-TwsEusIIWcKFQzoEbPGdg,4.5,-117.23961,32.875294,9500 Gilman DrLa Jolla, CA 92093
yLKoESPQ8BN7dn6ADzZicQ,3.5,-88.2294453,40.1102911,623 E Green St.Champaign, IL 61820
T-Ouo3opXRiUEyGoBT0aoA,3.5,-72.532801,42.415611,163 Sunderland RdAmherst, MA 01002
-hcRvJodkrY-G1u9MZm-ew,3.0,-71.415297,41.821278,397 Westminster StDownCityProvidence, RI 02903
jaFQtv7ysd_DZNAF-RK8cQ,3.5,-117.242188454,32.8715496929,La Jolla Playhouse2910 La Jolla Village DrLa Jolla, CA 92037
nIpIyaguICzAM286c9iwcQ,5.0,-76.4992934,42.4391463,120 S Cayuga StIthaca, NY 14850
aZzq3M2xwbNHNSQe2AbAOA,3.5,-73.9652178,40.8014263,964 Amsterdam AveManhattan ValleyNew York, NY 10025
lJVN0LZkpKK4PkU3SvHd1Q,3.5,-122.3132818,47.6619561,4523 University Way NEUniversity DistrictSeattle, WA 98105
senJyxjMuCVThGcwYSIU4w,3.5,-73.690331,42.72893,77-81 Congress StTroy, NY 12180
aXOAh0aYUG9_PECQ9h0-fQ,5.0,-117.6895127,34.0929852,8851 Central AveSte. DMontclair, CA 91763
chMf6XurNh_Xgs_Xv7kKww,2.5,-74.659691,40.3497125,92 Nassau StPrinceton, NJ 08542
-r1_7Zl3_zqhqOLKSJu9lw,3.5,-88.225987,40.111672,105 S Mathews AveUrbana, IL 61801
um1fwTnKZNyB-dMz0neGIA,4.5,-122.315781,47.661041,1121 NE 45th StUniversity DistrictSeattle, WA 98105
OdJvpUlDXp3K-0pI_uNkoA,5.0,-72.520549,42.378823,220 N Pleasant StAmherst, MA 01002
HepbklWPmInGoNOThnpc9w,4.0,-72.504499,42.373188,308 College StAmherst, MA 01002
uDllnTONN5r-FjcFqj7A4w,1.0,-86.876477,40.415124,1801 Main StLafayette, IN 47904
4soRFJ8cijXfCeWj7R5q4w,4.5,-122.1832198,37.4220638,198 Junipero Serra BlvdStanford, CA 94305
EPNoHDfz_1Kn606_KbO9yg,4.5,-122.175726,37.437538,770 Welch RdSte 250Palo Alto, CA 94304
2_u1MYw34yj_woFHk8DxAA,2.5,-122.1693094,37.4434685,800 Stanford Shoppng CtrPalo Alto, CA 94304
RYr5LkmPx9N1ZkiYkDe3Tw,3.0,-75.1953934,39.9583587,Powelton VillagePhiladelphia, PA 19104
Vt5-66bdIFny9aZKz-I0bw,4.5,-122.2659053,37.8695731,2240 Oxford StDowntown BerkeleyBerkeley, CA 94720
GPBqqLKwuIePeDf2tlwTRQ,3.5,-73.6476478,42.6975007,51 Main AveWynantskill, NY 12198
-2YrXfEi4vuriNgdDq4fFw,4.0,-71.122667,42.372258,1 Bennett StHarvard SquareCambridge, MA 02138
YzVfI1e4Cn1C9O84fDvRIA,4.5,-71.1039018631,42.3604148973,Tudor StCambridge, MA 02139
msBRtJxN8iN4-MtLlDM_Eg,4.0,-86.906388,40.423194,134 W State StSte DWest Lafayette, IN 47906
QfhRDOa1IIihaajPvJrHfg,4.5,-118.2781661,34.0074283,4166 S BroadwaySouth Los AngelesLos Angeles, CA 90037
6ivIw93SATyp6Syc-_k5Eg,2.0,-73.9565577,40.8025243,2090 Frederick Douglass BlvdHarlemNew York, NY 10026
RqQlOzyGRuMQYjKfhtUVPw,2.0,-118.1267324,34.1447183,1145 E Green StPasadenaPasadena, CA 91106
W3SE_iqmyavRAB_A52HtBA,3.5,-73.9640335,40.8109149,475 Riverside DrSte 241Morningside HeightsNew York, NY 10115
wKKRoSg1pZQtQRYPoD7TXg,3.0,-84.38381,33.779271,903 Peachtree St NE #500MidtownAtlanta, GA 30309
dfOjsr-Pv85qK3zs32zchg,5.0,-76.487558,42.484386,15 Catherwood DrLansing, NY 14850
2ET2Kc70sX8Sr3DdDT2k6A,4.0,-95.3938625,29.720517,6100 Main StWest UniversityHouston, TX 77005
BC0vQzqLlBp9wO2REfK2Kg,1.0,-118.124027,34.14626,1277 E Colorado BlvdPasadenaPasadena, CA 91106
JlN5BhjbErkp6myx-8Adkw,3.0,-117.7193298,34.0947025,101 N Indian Hill BlvdSte C1-104Claremont, CA 91711
e6abKOxJ2CyEwXLq2tI-yQ,4.0,-79.9401774,40.4261853,563 Greenfield AveGreenfieldPittsburgh, PA 15207
YvLyDin4LgvgmIivlxMoZQ,2.0,-80.5233044,43.4679985,85 King Street NWaterloo, ON N2J 2X3
b5MfWf45AJDgM2mWBf-76A,5.0,-117.218687,32.870225,8720 Costa Verde BlvdUniversity CitySan Diego, CA 92122
bUolNlWZ-jRmBcP6i7Ehpg,4.0,-71.413333,41.823889,79 Washington StDownCityProvidence, RI 02918
uPTVi6ed1QORhyeewqXaXg,4.0,-71.1136491,42.3706522,1105 Massachusetts AveHarvard SquareCambridge, MA 02138
VJ6jRy0pvly16R13B3JwHA,3.5,-118.446185,34.061878,1036 Broxton AveWestwoodLos Angeles, CA 90024
F_ofTZiczPkYZ93JAE3RRQ,2.5,-80.4141098,37.2303009,104 Jackson St NEBlacksburg, VA 24060
LvzfVDlvb9r0fcGXeitVKw,2.5,-73.956475,40.803468,2115 Frederick Douglas BlvdHarlemNew York, NY 10026
zps-kGBEwz4M4KYTnJXLJA,4.5,-75.1899239,39.9633867,503 N 33rd StMantuaPhiladelphia, PA 19104
1Rxz-NEYG17ljdXFdgIF-A,3.0,-76.490933,42.483327,40 Catherwood RdSte 84Ithaca, NY 14850
P2SYz9Amm5_Q1z49gy10bQ,3.5,-97.7418046,30.2869481,2322 Guadalupe StThe DragAustin, TX 78705
0895JZogvun_IO5fQqY6Ag,2.5,-71.1009774,42.3635262,450 Massachusetts AveCentral SquareMid-Cambridge, MA 02139
6-hG8T9_L7T3Y212g-hQQg,3.5,-76.954067,38.9665527,3601 East-West HwyHyattsville, MD 20782
cZoY24As9-CPqqaj3Nv91g,3.5,-80.5216627,43.4631408,92 King Street SWaterloo, ON N2J 1P5
wmbE33a3AsW-nhjbaagHzw,4.0,-80.521127,43.465845,8 Regina Street NUnit 5Waterloo, ON N2J 2Z8
bit99XCHmJlYds9b4tXTEg,5.0,-79.9228477,40.4377803,1701 Murray Ave2nd FloorSquirrel HillPittsburgh, PA 15217
c50dzrSpTjWUJc4MXZ3xqQ,4.0,-122.3130527,47.6653942,5008 University Way NEUniversity DistrictSeattle, WA 98105
rdCr5KnqfT5IsTOCfCmwfA,2.0,-75.198256,39.951131,3716 Spruce StUniversity CityPhiladelphia, PA 19104
AEtaK4_yM9NT-1y52xDe0g,3.5,-76.9377949,38.9802545,7319 Baltimore AveCollege Park, MD 20740
4GuSZLvZhLx3HXVr1F1tLA,3.0,-118.445022,34.061328,1060 Westwood BlvdWestwoodLos Angeles, CA 90024
tDaclhWzHpJcIN-i0IftpQ,3.5,-74.663469,40.353682,169 John StPrinceton, NJ 08542
PBTgfzC5M8gMAkFb-NMyPw,4.0,-97.74171,30.291018,2604 Guadalupe StWest CampusAustin, TX 78705
2LVuwl-eH-8PYikyFmqcTQ,2.5,-79.9554019,40.4347511,3526 Blvd of the AlliesOaklandPittsburgh, PA 15213
UQXOIVHDVe7GqAxg9BeRhA,5.0,-118.278063,34.017376,3655 S Grand AveSouth Los AngelesLos Angeles, CA 90007
0l-24bZMwwcMIwJgn34g6Q,1.0,-120.658351,35.2805729,1076 Pacific StSan Luis Obispo, CA 93401
myFg2k3ft-iy18EfKs2nmg,4.5,-80.4171,37.244,1303 N Main St # BBlacksburg, VA 24060
x_ZFlJO8lhPyWmZ5eMPYpA,3.0,-118.4436308,34.0630998,10861 Weyburn AveWestwoodLos Angeles, CA 90024
iy0227sqhdDr1pWVc3LpCg,3.0,-75.185108,39.954622,2955 Market StUniversity CityPhiladelphia, PA 19104
4KBLVr3PYilTUUWj3DWwVw,3.0,-79.9525921,40.4518232,4519 Centre AveOaklandPittsburgh, PA 15213
tqUQHX7gsWK2d2rsUuUUMw,4.5,-75.1873948,39.9523072,The Left Bank3131 Walnut StUniversity CityPhiladelphia, PA 19104
vXKABx7u6W2d1C8H8TNwzg,3.5,-120.6625259,35.2811166,888 Monterey StSan Luis Obispo, CA 93401
I_OPhKQDHUXHXDtFOtJCrg,2.5,-73.9528844,40.8110816,357 W 125th StHarlemNew York, NY 10027
mMfBXIQSR2OWMEzdD3fAsA,4.5,-118.447725,34.061198,1033 Gayley AveSte 115WestwoodLos Angeles, CA 90024
8l50Zi8Oo7fRHzQNa8H-AQ,3.0,-118.4452352,34.0612791,1062 Westwood BlvdWestwoodLos Angeles, CA 90024
4z3bGvWjCc2716z2y9sroQ,2.0,-122.2580468,37.8679097,2518 C Durant AveTelegraph AveBerkeley, CA 94704
iWqWZTE77fOAWwnAjSBSEA,4.0,-118.2774082,34.0259705,2823 S Figueroa StSouth Los AngelesLos Angeles, CA 90007
o9zNTc_sdvgqscQyJ4tQmw,3.5,-117.6982423,34.108795,1252 Monte Vista AveSte 13Upland, CA 91786
EMXF_jbhx_GNniMnG0uNVw,4.0,-118.123564,34.145452,1296 E Colorado BlvdPasadenaPasadena, CA 91106
ncsKJTkgDSuZoZNFLd_3Lg,2.0,-71.087239,42.351559,448 Beacon StBack BayBoston, MA 02115
KSyA0CR6r_zR-43uiYtdJQ,4.5,-80.535478,43.472467,150 University Avenue WSuite 3Waterloo, ON N2L 3E4
xdPNyOsE2kqugDiMT1DOxQ,3.0,-118.272922,34.030245,212 W 14th StSouth Los AngelesLos Angeles, CA 90015
h1VHvIm7xCdIRuZkRadoLQ,5.0,-117.21758,32.873178,4150 Regents Park RowSte 260La Jolla, CA 92037
aJCjOAGLAsA4vJ26Mc99tg,4.5,-71.1193867,42.3722573,82 Mt. Auburn StHarvard SquareCambridge, MA 02138
qwZ_YeEsIhV9GHLKzrjxRA,3.5,-86.907097,40.424417,115 N Chauncey AveWest Lafayette, IN 47906
VtJtF82g1y3w1HoKh5f68w,4.0,-76.471928,42.463413,189 Pleasant Grove RdIthaca, NY 14850
v2oxMmRA3SEr9l4aQvmEMw,4.0,-118.1327466,34.1426743,851 Cordova StPasadenaPasadena, CA 91101
dY06foxlaNTGZPevk8XXmQ,4.0,-117.226481,32.882921,9850 Genesee AveSte 460La Jolla, CA 92037
-ar6SC9nUaam_KbOJOgn-A,3.5,-122.1696775,37.4244756,519 Lasuen MallStanford, CA 94305
Rii78kjj-488O-ehx3f6Jw,3.0,-72.5194999,42.376,19 N. Pleasant St.Amherst, MA 01002
4ZAy5ZCTWbduzzhtR0egHQ,4.5,-88.2049898,40.1132792,114 N Vine StUrbana, IL 61802
Mjr4GCdANwPaP3FedPCHug,5.0,-117.236132,32.870735,8950 Villa La Jolla DrLa Jolla, CA 92037
PpobKRsZ8TKFakZybNCd6A,2.5,-71.4049402,41.8221968,285 S Main StFox PointProvidence, RI 02903
hElq39DzF9FX9Qlfrpf0Hg,3.0,-71.100211,42.362349,20 Sidney StCambridge, MA 02139
oukyW9ohk2ZFMHb8DEtcIA,4.0,-73.6769777,42.7749991,572 Second AveLansingburgh, NY 12182
sfte25wDiqfOgvwPw4KtVA,3.0,-122.1610427,37.4402229,795 El Camino RealPalo Alto, CA 94301
0Z2RFiSWwHIANWOR_jorrg,5.0,-118.291534,34.032746,Adams Blvd. and Vermont Blvd.South Los AngelesLos Angeles, CA 90007
JyAOqc6HXbcVMcolZNhu6w,5.0,-118.1288091,34.1445593,1030 E Green StSte 107PasadenaPasadena, CA 91106
JZXLgxJLKd9T-R6hrJhRZg,4.5,-88.208652,40.111959,114 S. Race StUrbana, IL 61801
Bh2rUyCB7zN6THcTWAo0Jg,3.5,-122.1585402,37.4382353,855 El Camino RealSte 34Palo Alto, CA 94301
x63PfbaMeUqEoxFLM69GyQ,3.5,-86.8998518,40.4220221,360 Brown StWest Lafayette, IN 47906
JXi-JdaceBauFdQ2t0x5PQ,4.0,-122.161143,37.44018,Palo Alto Medical Foundation795 El Camino RealPalo Alto, CA 94301
Hr51ZTL70WFVCEEWcI2YLA,4.5,-74.617043,40.374894,4621 Rt 27Kingston, NJ 08528
spuBsfi1HgngM2DllCMMWQ,3.5,-117.709708,34.099723,170 E 6th StSte 128Claremont, CA 91711
9GCuUQec-Ugxh_dXSMPbfQ,1.5,-76.48499,42.483011,2309 N Triphammer RdIthaca, NY 14850
Xc9S5SEcXwFpQ2AB07r8Lg,5.0,-71.1238,42.3739,22 Hilliard StHarvard SquareCambridge, MA 02138
LxlPT0fR0hOOJ4dkViFgEw,5.0,-122.1610427,37.4402229,795 El Camino RealPalo Alto, CA 94301
nFlan4SKCDk8Zi-Va0HmpQ,3.5,-86.9017583,40.4210746,348 E State StWest Lafayette, IN 47906
pYHfpcZQa5wNCXxcjIAyGQ,4.5,-118.436315,34.062979,Keller Willams Real Estate10880 Wilshire Blvd,Ste 122WestwoodLos Angeles, CA 90024
T2F7YtQU0Kyg53vjIkk2fA,5.0,-122.161179,37.440111,795 El Camino RealPalo Alto, CA 94301
970s01xAU8Yv-lAQaBXvNA,4.5,-71.0863864,42.3613957,25 Carleton StKendall Square/MITCambridge, MA 02142
PsE1SR-WuUF6-SBlK6GI6g,4.5,-118.281574,34.031077,909 W Adams BlvdSouth Los AngelesLos Angeles, CA 90007
9PQDm1GGAAN1ko03DtGtrA,3.0,-118.4509313,34.0750747,330 De Neve DrWestwoodLos Angeles, CA 90024
-slxxzaq_vWyMcQjeY9w1g,4.0,-74.66952,40.36746,Forrestal Village110B Rocking Ham RowPrinceton, NJ 08540
vWXMwnNy1TUAc4-IuFoE1g,3.5,-76.508533,42.4289739,748 S Meadow StIthaca, NY 14850
J6S1cCEfQCZgR44OugpU4Q,5.0,-120.6575848,35.282467,1171 Toro StSte CSan Luis Obispo, CA 93401
_9RMPeb6IdK3EhEHW3e48Q,2.5,-122.313097,47.6584099,4200 University Way NEUniversity DistrictSeattle, WA 98105
8O-CfRvRWmhdSnrjVeXerA,4.0,-122.158922,37.438491,65 Town & Country VillagePalo Alto, CA 94301
HWhf9Q-rj6YR1tRRBOjuhw,3.5,-83.7407970428,42.2796584494,215 S State StDowntown Ann ArborAnn Arbor, MI 48104
vfat4AeWHMgamDTeM9xS2A,3.0,-71.1209004,42.3722616,92 Winthrop StHarvard SquareCambridge, MA 02138
7ELKjUQFVpv5qCjaFiEO3g,1.5,-71.0938,42.3663,216 BroadwayKendall Square/MITCambridge, MA 02139
KVAacSMfpR9Me-2bJPQNVw,3.0,-73.689333,42.730978,71 4th StTroy, NY 12180
qF4ARexOlkLSgYBogjzy-Q,3.5,-76.937609,38.979909,7313F Baltimore AveCollege Park, MD 20740
V0Qqc0uHXvcN3PCxTawGMQ,2.5,-118.1322531,34.1413756,256 S Lake AvePasadenaPasadena, CA 91101
AGEqJiLFq_cJzHfvtweoOw,3.0,-122.2592213,37.868148,2332 Telegraph AvenueTelegraph AveBerkeley, CA 94704
rP90TP7gOMzBFTrKWEEsOw,4.0,-84.386039,33.778904,40 7th St NEMidtownAtlanta, GA 30308
jEa4sx3L0xu9z_egOpycDA,2.5,-79.0322671,35.909763,1210 Raleigh RdChapel Hill, NC 27517
HW3VMO1ejK0j1mPwBvOFBQ,2.5,-86.9018385,40.4211054,332 E State StWest Lafayette, IN 47906
nlsuNv2HSfHZ-IMpf42KwA,4.5,-118.4452352,34.0612791,1062 Westwood BlvdWestwoodWestwood Village, CA 90024
cRXQBgMaOvVennr6QkILhQ,3.5,-122.259120941,37.8683490331,2556 Telegraph AveUnit 14Telegraph AveBerkeley, CA 94704
IPpTt6Vzg5SCNVFaKPT0lg,4.5,-88.2256708,40.1127798,1301 W Springfield AveUrbana, IL 61801
xsciMH9Wvl6o3sUdCsz8gw,3.5,-71.4000648,41.8193377,166 Wickenden StFox PointProvidence, RI 02903
i1_mJvrqrro8PYotJ4NW4g,4.0,-79.0339618,35.8972884,1000 Laurel Hill RdChapel Hill, NC 27517
6mZT48b5f2sUwUuzrhiEMg,4.0,-74.650554657,40.4045669792,Village Shopper1330 Rt 206Skillman, NJ 08558
jVMA-G_r7o8UE9ApQml2lA,5.0,-122.2567822,37.8689555,2600 Bancroft WayTelegraph AveBerkeley, CA 94704
gE8pV2pKW00yMpxrueKJaA,4.5,-95.3913819,29.730359,4720 Montrose BlvdMuseum DistrictHouston, TX 77006
QtXP6bCfwJEvLoHjJb7mSg,5.0,-72.58528,42.3797104,181 River DrHadley, MA 01035
64GjqVt5PVXfzKezzKonHg,2.5,-76.9252041,39.0216509,10250 Baltimore Ave Ste ECollege Park, MD 20740
TCUHRuAtuywrmF9YVF-uFw,5.0,-75.1953934,39.9583587,Powelton VillagePhiladelphia, PA 19104
QbtNPawuMu7UIfRAfhGJpA,3.5,-71.119172,42.3728989,21 Dunster StHarvard SquareCambridge, MA 02138
f_y0wlUALp8O95b3sKk7mQ,2.5,-122.170656,37.424096,459 Lagunita DrStanford, CA 94305
pcTwC4zpNfAVGF5R0brRug,3.5,-84.3856915,33.7676956,550 Peachtree Street NEDowntownAtlanta, GA 30308
5u65CsgFJyB1ry1ehOWP2w,2.5,-118.2737581,34.0327627,2025 S Figueroa StSouth Los AngelesLos Angeles, CA 90007
NzB-ngzDSKU8zq4v23Cy-A,3.5,-74.6610929,40.316565,100 Canal Pointe BlvdSte 116Princeton, NJ 08540
gxMX5XA8dB3-sTpfmXb8rg,3.5,-118.2816041,34.0171424,3742 S Flower StSouth Los AngelesLos Angeles, CA 90007
Me50d-R1O6lfn1E7iS2hzQ,4.0,-95.415009,29.70597,2413 W Holcombe BlvdWest UniversityHouston, TX 77030
7GCIugiVM_q3qBRhhhs9Mg,4.5,-118.1308602,34.1463721,16 N Mentor AvePasadenaPasadena, CA 91106
oVSsRjZlXHtOxRE6VsFSOw,3.5,-79.9320173264,40.4518865332,5601 Walnut StShadysidePittsburgh, PA 15232
z50FVnW-Lcevj8z2KZQ_gw,4.0,-88.2304104,40.1102758,701 S 6th StChampaign, IL 61820
I0hERK_JAdL_JBiu1MEkiA,3.0,-117.249398232,32.8897140812,2800 Torrey Pines Scenic DrLa Jolla ShoresLa Jolla, CA 92037
tzhQ0sqMmvupF9LpaajH2g,5.0,-71.121154,42.373193,1 Brattle SqHarvard SquareCambridge, MA 02138
gmGp0R8_Hf_zJzS5VL6kyQ,5.0,-75.190043,39.95255,S 33rd St and Walnut StUniversity CityPhiladelphia, PA 19104
yNgvpaf6qoUK1t34OLI9fw,3.0,-76.9106389,39.0107808,5717 Greenbelt Metro DrCollege Park, MD 20740
dYCZYVgTg6FqWnblFi0nYA,2.0,-118.2776104,34.0256469,2904 S Figueroa StSouth Los AngelesLos Angeles, CA 90007
nzA2j-f-W5bRiGYkhmLvGw,5.0,-118.447997,34.062827,950  Gayley AveWestwoodLos Angeles, CA 90024
avArfGP2kHd0gctgP02MeA,5.0,-118.121852,34.146524,1365 E Colorado BlvdPasadenaPasadena, CA 91106
5fHRx5_Zi6CJM0MFlOvH1g,4.0,-118.2755172,34.0286326,2536 S Figueroa StSouth Los AngelesLos Angeles, CA 90007
AeH9mqarMaNHIwRywcTXmA,2.5,-71.1190057,42.3735076,Harvard Square Eye Care19 Dunster StHarvard SquareCambridge, MA 02138
XZ5zgtWMhNfYobHCEEVd3Q,2.0,-75.1939455,39.9561457,3550 Market StPowelton VillagePhiladelphia, PA 19104
bhKu3b1G7a_m8F_JfapZnA,3.5,-71.1029054,42.3649209,Prana Power Yoga585 Mass Ave, 2nd FlCentral SquareCambridge, MA 02139
kYVx-v_e50aa_lHt5HflhQ,3.0,-118.4453062,34.0631704,919 Westwood BlvdWestwoodLos Angeles, CA 90024
6gESOYIgGbWT1oa7zRYT_w,4.0,-117.234028,32.8770601,Rimac Annex9500 Gilman DrSan Diego, CA 92093
TCjOnOepk9KNXlPMHI9BLA,5.0,-122.1585402,37.4382353,855 El Camino RealPalo Alto, CA 94301
og5m2JpGNomazyDf1ZBaMQ,5.0,-83.7460327148,42.2844210357,Kerrytown Ann ArborAnn Arbor, MI 48108
26_GR9WMRMB-15yMh8WYrw,3.5,-118.435567,34.08132,100 Bel Air RdLos Angeles, CA 90077
nSUn-EHKm5dNixSB8AwiRg,3.0,-117.2316823,32.8694515,8855 Villa La Jolla DrLa Jolla, CA 92037
OdRx4ieW-3E2Brv3MxfjYg,4.0,-71.4084338,41.8172148,75 South StDownCityProvidence, RI 02903
8BUVhDF9yLzzthhFxeceYA,3.5,-88.2407279,40.1127011,40 E Springfield AveChampaign, IL 61820
SsyAebZ3bsUYoll4W_JgqA,5.0,-84.3974235,33.7648325,434 Marietta St NWAtlanta, GA 30313
4iTRjN_uAdAb7_YZDVHJdg,5.0,-122.1610427,37.4402229,795 El Camino RealPalo Alto, CA 94301
30NEUloPHCKf7zeMim4NhA,4.5,-79.0471029282,35.9110899384,208 Raleigh St, CBSte 391Chapel Hill, NC 27514
2e5Q-0Pr23NFEhgpYG8cFw,3.5,-88.227253,40.109243,1401 W Green StUrbana, IL 61801
of-jKY4l-Sf2zvDVErNvZQ,3.0,-76.9302092,39.0159588,4720 Cherry Hill RdCollege Park, MD 20740
t2Yx45_ShO72LCFQnzHpow,5.0,-117.22631,32.882894,9850 Genesee AveSte 300La Jolla, CA 92037
3jNcpoasden7MgaN9nPr3A,4.5,-122.3129501,47.6648192,1403 NE 50th StUniversity DistrictSeattle, WA 98105
JkAmtVX7OhCY2b9Fu6Hskw,3.0,-72.5198841,42.3771563,25 N Pleasant StAmherst, MA 01002
rKMPry_7sf-OlRkI8T8NRw,3.5,-72.5727623,42.3469546,235 Russell StHadley, MA 01035
-GbYb_52q26daCmvAXDsRA,4.5,-97.744935,30.282848,1901 Rio Grande StWest CampusAustin, TX 78705
QxiEo0oS1MyBrr0vWlMqyg,5.0,-80.4203,37.1581,2130 N Franklin StChristiansburg, VA 24073
WNn8UfSVYrfksEJSjTciZw,2.5,-88.2049898,40.1132792,114 N Vine StUrbana, IL 61802
nvd_6PF7AggAgQeme2E3Pg,3.5,-76.518546,42.421903,374 Elmira RdIthaca, NY 14850
YkfO27_LBJ1oMpq1Lx-hpw,5.0,-95.419143,29.725224,2607 Bissonnet StWest UniversityHouston, TX 77005
ERRowW4pGO6pK9sVYyA1nQ,4.0,-122.2584562,37.8650499,2502 Telegraph AveTelegraph AveBerkeley, CA 94704
LfHXmKTea4GZpXIcJy50lA,5.0,-76.4978563,42.4395776,140 E State StIthaca, NY 14850
M0LsQjjRK9kZGtpl5LFIYg,5.0,-118.128472,34.1445792,1059 East Green StreetPasadenaPasadena, CA 91106
fkxx4IkbS9MiHXmis_xOHA,3.0,-71.1097335,42.3736158,100 Cambridgeside Place OfcHarvard SquareCambridge, MA 02141
_9_aqbw4ak8qFskzxHxrpQ,4.0,-75.203551,39.9515529,4008 Spruce StUniversity CityPhiladelphia, PA 19104
hSDRGgXGuX2BtgaIi7qm2w,3.5,-80.4342,37.2337,801 University City Blvd Ste 15Blacksburg, VA 24060
9GvZlVWZVVGKNMm70oeDcg,4.5,-122.3131086,47.6580931,4140 University Way NEUniversity DistrictSeattle, WA 98105
KzftOY3nG0OXXeMac8jcHw,2.5,-122.1584255,37.4381766,855 El Camino RealSte 36Palo Alto, CA 94301
vnMkIv4KNMUoXwtb4ljezA,4.0,-75.1953934,39.9583587,Houston Hall3417 Spruce StPowelton VillagePhiladelphia, PA 19104
ggjWK5GsZQyUmGNoZaqMFQ,3.0,-72.5191493,42.3758663,50 Main StAmherst, MA 01002
qT2GTTwIdqLMLNq7p-oL7g,5.0,-76.9877611,38.9891291,7900 New Hampshire AveHyattsville, MD 20783
ccOfZIZOwJM6o3t-Jbw-jA,2.5,-86.858009,40.401518,3338 Main StLafayette, IN 47905
kMpCPgWXE2EYOtzMDxVHYw,2.0,-88.2433829,40.1164204,2000 N Neil StMarket Place MallChampaign, IL 61820
UkHcGDxoCqo2GLcRnU7Q3A,3.5,-86.893917,40.4192137,312 Main StLafayette, IN 47901
Zq_fVOoy27cdkKO_CcP8eg,4.5,-83.7415776,42.2783584,11 Nickels ArcadeDowntown Ann ArborAnn Arbor, MI 48104
VeiGa7h8p1I2yAIfgZjgtw,3.5,-122.173119,37.441397,393 Stanford Shopping CtrPalo Alto, CA 94304
nH15aqW7-fUp-z9VnssVhQ,3.5,-118.1321938,34.136843,524 S Lake AvePasadenaPasadena, CA 91101
SZHJsSqbIpURYPXtKkrF7g,3.5,-118.446024,34.0607789,1091 Broxton AveWestwoodLos Angeles, CA 90024
ahsTGfePUyahRDUqcfue7w,3.5,-120.663834,35.281429,815 Palm StSan Luis Obispo, CA 93403
w9dsNR2ZGM2kaN_F2WQNag,3.0,-83.7357875,42.274591,615 E University AveSouth University Ann ArborAnn Arbor, MI 48109
jV4YhWug_ev8Fd00SieqxA,5.0,-79.0756984,35.9102538,203 W Main StCarrboro, NC 27510
_7CLb8wr3ZqJsD8w3nQsOw,5.0,-72.521176,42.380928,300 N Pleasant StAmherst, MA 01002
9cQBXkPlIrVrJ5vj_MUh8w,3.0,-79.0543881,35.9136871,145 E Franklin StChapel Hill, NC 27514
kRPp_jw4BsJJLJvT8Pj1pQ,4.0,-118.2757665,34.0360976,777 W Washington BlvdCentral StationSouth Los AngelesLos Angeles, CA 90007
YQ2yr3OGQZQQM9kjzAlZjg,1.5,-122.2590843,37.8685345,2305 Telegraph AveTelegraph AveBerkeley, CA 94704
RRhs5J2fqDcLMFaldkSq-w,4.0,-118.307941,34.025078,1748 West Jefferson BlvdSouth Los AngelesLos Angeles, CA 90018
Qzb72EJsUwwpxXOMx_DOYA,3.0,-83.7344659,42.2751009,1201 S University AveAnn Arbor, MI 48104
weryrLYEmYxSjh1AIYB-sQ,3.0,-117.7247796,34.0944369,502 W First StClaremont, CA 91711
4V0n7B-jMFx1kvQJ4afmNQ,4.0,-122.2614327,37.8684413,Bancroft Way & Dana CtUC Campus AreaBerkeley, CA 94701
e8Qygq-7q6hnoZpmAGCuww,3.0,-122.313528,47.658675,4209 University Way NEOn The AveUniversity DistrictSeattle, WA 98105
AgXYZYxZN4L9TomS1JfEVQ,2.0,-117.226736816,32.8676031745,3707 Nobel DrUniversity CitySan Diego, CA 92122
CaAFCP3njTjs2AO20p4Ldg,2.5,-83.748372,42.279785,219 S Main StDowntown Ann ArborAnn Arbor, MI 48104
N3cxjE5WLz9J-gjxGmC5EA,4.0,-84.387498,33.780737,950 W Peachtree StSte 275AMidtownAtlanta, GA 30309
Xrhhmvu6JX148OkK9a8xug,4.0,-74.621839,40.318415,31 Station DrPrinceton Junction, NJ 08550
PcngXr5t49QK8Lj1Xi3aIw,4.0,-73.761487,42.743088,749 New Loudon RdLatham, NY 12110
LF6tcrjx-aDTeMeoCCoLqA,3.0,-75.2027046,39.9571023,4016 Market StUniversity CityPhiladelphia, PA 19104
g6NXfYp1ZeJjUQrqne8-Ig,3.0,-74.6566971,40.3507085,164 Nassau StPrinceton, NJ 08542
Qxle1jEskVde-Sn5Ntezmw,4.5,-122.313471,47.660921,4339 University Way NEUniversity DistrictSeattle, WA 98105
yrXBjlv9-lszAsLu5jmUrg,3.0,-86.889159,40.4193969,648 Main StLafayette, IN 47901
RDzV57rWFU0eXPeqTCl7UA,4.0,-71.1196382,42.3733942,0 Brattle StHarvard SquareCambridge, MA 02138
iAIREA5sbRP831ok-s9oxQ,2.5,-79.0280732,35.9265084,University Mall201 S Estes DrChapel Hill, NC 27514
fjGpK3l90w_NX3dICkKj4Q,3.0,-74.6557081,40.3509622,182 Nassau StPrinceton, NJ 08542
gtOhkU1qnTeIIGVL53btfA,4.5,-120.6619105,35.2814779,956 Monterey St.San Luis Obispo, CA 93401
ILLYK1PwY2F5c__Dhycopw,4.5,-71.414308,41.8259791,One Union StationDowntownProvidence, RI 02903
lB76mdTLWgn_almMDps4Eg,5.0,-73.955859,40.8032309,2116 Frederick Douglass BlvdHarlemManhattan, NY 10026
7NlcGz2E_pOs8y8N8rDR6Q,4.0,-75.1902895,39.9514904,233 S 33rd StUniversity CityPhiladelphia, PA 19104
s0G2XYSBoTIsRiVd0NnG6A,2.5,-79.060221,35.911747,308 W Franklin StChapel Hill, NC 27516
eAtgP6XcUjRVK8dh8foZdQ,2.5,-122.3132311,47.6572027,4124 University Way NEUniversity DistrictSeattle, WA 98105
_r0Smq2oJAU4PYdsczk7XA,5.0,-73.6917851,42.7284117,Troy, NY 12180
qeoJCWkrXbrVZvVHpqargw,4.0,-122.3131294,47.6615645,4507 University Way NEUniversity DistrictSeattle, WA 98105
5_HDb91B-4b-bA_5U066vQ,4.0,-73.6801666,42.7846733,Delaware AveWaterford, NY 12188
aqmS1P71bWX2j8MFNAweBA,2.5,-122.174049,37.439161,550 Stanford Shopping CtrPalo Alto, CA 94304
Hnz1_h_D1eHSRtQqHSCZkw,3.0,-75.2018442,39.9557155,3939 Chestnut StUniversity CityPhiladelphia, PA 19104
Ztpv2dSPqCwR9tyjXBlovg,1.0,-73.956397,40.803818,304 W 115th StHarlemManhattan, NY 10026
RN2Aw4JLtLL7_5sIW-pGUw,4.5,-73.7308822,42.7382599,200 Troy Schenectady RdLatham, NY 12110
bnBMEhZ_a1EC8gHo6t4lYA,4.0,-74.5896527,40.3327209,607 Plainsboro RdSte DPlainsboro, NJ 08536
s4AZLEHmEZqdl_8Qr7T6_A,3.5,-120.6599124,35.2905092,580 California BlvdSan Luis Obispo, CA 93405
vpz5MWsG49JAGOuEneuuKQ,3.0,-118.1195346,34.145979,1491 E Colorado BlvdPasadenaPasadena, CA 91106
gNLgH9yqB2iSjacFpa69jA,2.5,-73.667102,42.785916,4 Northern DrTroy, NY 12182
UR4o1izRUVX5WanCXW8S7A,3.5,-122.298027,47.66254,2695 NE Village LnUniversity DistrictSeattle, WA 98105
2YUKJyCFnXDijmCpqhP9pQ,5.0,-80.5226592,43.4656777,21 King St NWaterloo, ON N2J
UNKJn6dS31vAx-9GomZHEw,3.0,-117.2317657,32.8646622,8657 La Jolla DrLa JollaLa Jolla, CA 92039
80fvd_DsoW5XhwQIMBGvtg,4.5,-73.962842,40.804211,1047 Amsterdam AveMorningside HeightsNew York, NY 10025
_peFbE5jqTwlRJ-jgoMe7g,3.0,-75.1931188,39.9535501,3426 Sansom StUniversity CityPhiladelphia, PA 19104
AA-FZmy6JmzaAoavIUTaUQ,4.5,-79.958095,40.4408964,3609 Forbes AveOaklandPittsburgh, PA 15213
5lXhJe7gob74m93eyjyp3A,3.5,-88.227253,40.109243,1401 W Green StUrbana, IL 61801
7x0i0seshwLXBVAam16wuw,3.0,-122.2579783,37.8680781,2521 Durant AveSte BTelegraph AveBerkeley, CA 94704
jIn1YeBAxu--sf6JgV0Htw,3.5,-76.4976835,42.439576,137 E State StSte 139Ithaca, NY 14850
gkqcLBqkkB9IfqwTPga5xA,5.0,-76.9403431,38.9556763,5504 Baltimore AveHyattsville, MD 20781
rPT6ak3-KvOJTxnIzYNH0w,3.5,-71.401008,41.829596,284 Thayer StCollege HillProvidence, RI 02906
Nm_Bfi91tWYttqzM6JVftQ,4.5,-118.1323869,34.1388359,415 S Lake AvePasadenaPasadena, CA 91101
pSNEDaUGljLSHBZz5JNpuA,5.0,-117.233116,32.8702882,8935 Towne Centre DrSuite 105San Diego, CA 92122
KTk2MscogGvlPCjsFInGjQ,3.5,-71.114352,42.372066,400 Harvard StHarvard SquareCambridge, MA 02138
zMzv_B2t5TOlPTGSFz8gIQ,2.5,-118.4463912,34.0616247,1045 BroxtonWestwoodLos Angeles, CA 90024
386j3L_MaVCrjkzYu9JbmQ,4.0,-122.1585402,37.4382353,855 El Camino RealSte 13APalo Alto, CA 94301
nsveQOtSA7qVo5pY9Ehb-A,1.5,-76.9105292,38.9939991,6201 Greenbelt Rd Ste U8ABerwyn Heights, MD 20740
DC_zGdDwXAT4jXRgv4nL8A,4.0,-73.632516,42.6860069,104 W Sand Lake RdWynantskill, NY 12198
C2E1E0o-ssSrf_dokwxTXg,3.5,-73.9587263,40.8098702,1239 Amsterdam AveMorningside HeightsNew York, NY 10027
mNiUGJUemzDpffm1KfAhWA,3.0,-84.385486,33.774062,710 Peachtree St NEMidtownAtlanta, GA 30308
-5Rah4ZvWsDu4oilUZxhtw,4.0,-75.1851366,39.9519872,3025 Walnut StUniversity CityPhiladelphia, PA 19104
NLldhBifAmYQlruzdIV9ZQ,4.5,-122.3130502,47.6608513,4334 University Way NEUniversity DistrictSeattle, WA 98105
29mrQDCc_AqikR4C6e84Mg,3.0,-122.2583453,37.8649907,2505 Telegraph AveTelegraph AveBerkeley, CA 94704
CWk6yFOoKJH5URub5XsHDg,3.5,-73.96742,40.800818,248 W 106th StManhattan ValleyNew York, NY 10025
R7iNhaoCdT3N7qppUCQ6Og,5.0,-122.162521,37.442904,115 Hamilton AvePalo Alto, CA 94309
7wHzc0DUlM6P498oc_UBYA,3.0,-122.2580885,37.868144,2519 Durant AveSte CTelegraph AveBerkeley, CA 94704
NpNSOfnPxJKa8_qh83NArw,1.0,-88.2442559,40.1002494,1401 S Neil StChampaign, IL 61820
UbZQCo1xdJEnXiJzEJLiqQ,2.5,-118.4436308,34.0630998,10861 Weyburn AveWestwoodLos Angeles, CA 90024
tCHzMY3WnCxw2lHvnMcXFA,4.0,-80.522223,43.465098,40 King Street SouthWaterloo, ON N2J 1N9
mG1BCARvE0FA6-IszNpZ1Q,2.0,-73.67093,42.7879612,898 2nd AveTroy, NY 12182
0j2qFr_kHZopr3tGRf0ZvA,3.5,-122.259209,37.868713,Bancroft Way and Telegraph AveTelegraph AveBerkeley, CA 94720
ooNlNmDvLdmPuR_b_b2Rww,4.0,-71.3921962,41.8221766,146 Ives StProvidence, RI 02906
gk9jsfaU3RoomWmfoW1tlw,3.0,-117.23961,32.875294,9500 Gilman DrMC 0039La Jolla, CA 92093
gCa-GP9620vqwmP4E25xUw,2.0,-88.229611,40.110082,619 E Green StChampaign, IL 61820
rv2_jpzHnIYzq8_tHVrL1g,3.5,-84.3895494,33.77684,68 5th St NWMidtownAtlanta, GA 30344
s6nOfGZJpkZ3JplCO9lGiA,4.5,-75.1923623,39.9545899,3421 Chestnut StUniversity CityPhiladelphia, PA 19104
KW5Cp3UOPy0KIK22lWRTxg,3.0,-72.5178217,42.3803754,5 Pray StAmherst, MA 01002
_oHAQK401Vs7ynH4S2P16Q,3.5,-72.5045857,42.3729739,390 College StHampshire, MA 01002
ZiDnZGOCsr9xBGEL9ihzjg,3.5,-72.519143,42.37722,103 N Pleasant StAmherst, MA 01002
zrN108VsXtdau1vBGmGarA,3.5,-122.1723396,37.4437475,367 Stanford Shoppng CtrPalo Alto, CA 94304
Q0YQrdElScwBBc7G4V7woQ,4.0,-118.2728734,34.0331744,1945 S. FigueroaSouth Los AngelesLos Angeles, CA 90007
VYsFC-bwU24kw_9pxOYllg,5.0,-120.6631844,35.2795692,779 Higuera StSan Luis Obispo, CA 93401
Gtip99YU-FXQrMdPt1OeMg,1.5,-71.1198084,42.3731681,7 JFK StHarvard SquareCambridge, MA 02138
ZpYGInaSJ3HL7IGn4GWbwA,4.0,-97.7389543,30.2961708,University of TexasAustin, TX 78705
iD6oJ4qcM3RDF4PzKkk7fA,2.0,-122.173119,37.441397,393 Stanford Shopping CtrPalo Alto, CA 94304
AaLBZaMtW9EmhIY3dHRrNA,1.5,-83.7319511,42.275149,1335 S University AveAnn Arbor, MI 48104
E400K9Av32vfHp580rY1pg,2.0,-118.30051,34.011235,1401 W Martin Luther King JSouth Los AngelesLos Angeles, CA 90062
-4WMsrBt63Db2iQI_DjKpg,4.5,-74.577094,40.328919,9 Schalks Crossing RdSte 712Plainsboro, NJ 08536
Rq4uo4COsP8W-oo1KgTavQ,3.5,-118.131827,34.142218,214 S Lake AvePasadenaPasadena, CA 91101
Q6cGNUWxcoutDQsJyzTOng,1.0,-117.216784,32.872455,4180 La Jolla Village DrSte 210San Diego, CA 92037
unqWRxFgGs4_slGVRC8_Cg,4.5,-118.4471583,34.0607879,1065 Gayley AveWestwoodLos Angeles, CA 90024
eva56motCJcevOwKzyQO1g,5.0,-79.95492,40.44432,1 Schenley ParkOaklandPittsburgh, PA 15213
8Ao-lYJP4kiW2qySjiZcDw,4.5,-73.6870116,42.7366686,444 River StTroy, NY 12180
8ur--e2ts1vNTnKiQdSjfQ,2.5,-83.7399823,42.2787103,715 N University AveDowntown Ann ArborAnn Arbor, MI 48104
0lYPKPoUC1YMz5gNJpsBRA,2.5,-79.0576070802,35.9108076628,125 W Franklin StChapel Hill, NC 27514
p-3rldIHAXrEb3RkImcPaA,3.5,-118.4467783,34.0625858,10944 Weyburn AveWestwoodLos Angeles, CA 90024
EVg7TObKqQ4YSkROUJxZ_Q,1.5,-122.3131089,47.6622633,4535 University Way NEUniversity DistrictSeattle, WA 98105
Jj1mkmnjXOFtzl-rVjGRbg,3.5,-120.662547,35.279031,1141 Chorro StSan Luis Obispo, CA 93401
lUDlqfzgY1LGLO8AUhWnXA,3.5,-118.132687,34.13755,475 S Lake AvePasadenaPasadena, CA 91101
nDXR7nnWXDlkTvlx3Qbqgw,4.0,-75.185114,39.9522059,3025 Walnut StUniversity CityPhiladelphia, PA 19104
CyBo_6qf6A_ARgJ_vU5Ecw,2.5,-76.5157056,42.4231953,356 Elmira RdIthaca, NY 14850
NyuB4MGNx6izrBd6u1zNYA,4.0,-86.8585218,40.4238647,700 Sagamore Pkwy NLafayette, IN 47904
V-M1KDOB7LzjhxS3T6fmWg,2.5,-117.690052,34.094867,8750 Central AveMontclair, CA 91763
5g1qWGrVhUWZWdvNyOWZHA,2.5,-74.652779,40.35145,225 Nassau StPrinceton, NJ 08542
pDx4Tqx31Fmac4NUGvr2_g,4.0,-76.9379713,38.9801058,College Park Shopping Ctr7326 Baltimore AveCollege Park, MD 20740
043WqIgVYVRdUItQ4wuKPw,3.5,-72.5368564,42.36489,456 Russell StHadley, MA 01035
Z0r_uDaNhd5JIYOGREClTg,4.5,-84.3895494,33.7768395,68 5th St NWMidtownAtlanta, GA 30308
gAigOmda9NyXbJsD2Vsg-Q,4.5,-118.129777,34.144773,989 E Green StPasadenaPasadena, CA 91106
S4GEsM7PLEZO4EBFwnERCQ,3.0,-73.6894561,42.7287799,99 Congress StTroy, NY 12180
RqLn2hNnCcq6U7sQIUcHOw,3.0,-73.9668555558,40.803976214,110th St and BroadwayManhattan ValleyManhattan, NY 10025
Wgt198r2oU-aqSe3mWNC8A,1.5,-118.276534,34.02108,3333 S Grand AveSouth Los AngelesLos Angeles, CA 90007
39C414-SwTpyes-9lbqkLg,4.5,-72.584056,42.342257,173 Russell StHadley, MA 01035
X381_JV6xOq3VSsep13GvA,3.0,-80.434,37.2366,922 University City BlvdBlacksburg, VA 24060
IM9SyBL-wLEVMJcErjIsYw,4.0,-76.9335057,38.9917449,8145 Baltimore AveCollege Park, MD 20740
nJ1kl6lL1yFqR8vz6a_Suw,3.0,-117.734247,34.106536,994 W Foothill BlvdClaremont, CA 91711
sweqBbas6BRylFBEDexGIg,4.0,-120.6631956,35.2802761,1020 Chorro StSan Luis Obispo, CA 93401
AztY39QdGAkoKrLy9Di2yw,4.0,-83.7474647,42.2799529,214 S 4th AveDowntown Ann ArborAnn Arbor, MI 48104
tbi7cnb_5ewdu-YS2atPnw,4.5,-122.253043,37.867353,2726 Channing WayUC Campus AreaBerkeley, CA 94701
nL6fL-kFpNSCrLdYM7qNZg,5.0,-73.9612979,40.8113763,3066 BroadwayMorningside HeightsManhattan, NY 10027
PzmZp23d8ia2XXQfQIzmYQ,2.5,-120.664057,35.287916,390 Santa Rosa StSan Luis Obispo, CA 93405
YeOYJzARrDlJUVTn6QbQPg,3.0,-79.0760929,35.9106958,207 W Main StCarrboro, NC 27510
1beYso295toaCxXt2ecdig,4.0,-76.4970088,42.439405,228 Columbia StIthaca, NY 14850
JzHX0u6JUCR4EmONSxkR9g,3.5,-120.6710803,35.2939079,799 E Foothill BlvdSte CSan Luis Obispo, CA 93405
DLqbqCTMYUQLUSJ4Iwk17g,4.0,-74.65995,40.351104,12 Spring StPrinceton, NJ 08542
rL3yi1KUhyyMxVejpPHU3g,3.5,-118.438468,34.073886,University Of California-Los AngelesWyton Dr and Charles E. Young Dr EWestwoodLos Angeles, CA 90025
mOJ7tEhqFBbHCm1FfSkU4g,3.5,-73.957409,40.8121308,1310 Amsterdam AveHarlemNew York, NY 10027
s7nCaNFMUZlAc3uMTSrH7A,4.5,-71.3923521,41.8231313,174 Ives StProvidence, RI 02906
S-xUsS4RKzBrOnAjy6lnyA,4.0,-73.9658484,40.8002531,934 Amsterdam AveManhattan ValleyNew York, NY 10025
eFos_qY9NM_zRdtKmN8fKA,3.5,-79.9357367,40.4507282,806 S Aiken AveShadysidePittsburgh, PA 15232
HYR0_XYOGgH0Bh7wgbNkoA,3.5,-76.4956839,42.4401607,118 N Aurora StIthaca, NY 14850
iNQQFc8BhrPdfPJaeKIyYw,4.5,-118.272757,34.0185339,3401 S Main StSouth East LALos Angeles, CA 90007
cvDsVQAPUd3-9MgzskbN8g,4.0,-122.3129011,47.6654283,5016 University Way NEUniversity DistrictSeattle, WA 98105
iiVrWI2AWZIhSUoCTIV5fg,5.0,-120.656947,35.280758,1141 Pacific StSte DSan Luis Obispo, CA 93401
yLx8vO015iMCbxsI045Vkw,3.5,-83.7463204,42.2804298,221 E Washington StDowntown Ann ArborAnn Arbor, MI 48104
QF0M7gvb92V_wpi7hEdgyA,2.5,-97.7301842,30.2882785,727 E Dean KeetonUniversity of TexasAustin, TX 78705
ATqKQHGS-iyNpzks8SV95w,3.5,-79.0644,35.910804,110 N Graham StChapel Hill, NC 27516
lBA7uNsdZiw3I3ZJ3bgVMA,4.0,-86.8578624,40.4238726,623 Sagamore Pkwy NLafayette, IN 47904
c-vmZW50ORqIwOz9tsT37w,4.0,-120.6638287,35.2810386,970 Chorro StSan Luis Obispo, CA 93401
hGwCdB5rZh8u0myX3ggecA,5.0,-83.7485114,42.2795742,106 East LibertyDowntown Ann ArborAnn Arbor, MI 48104
0vzxYA1XAop1LT7DzRfJrQ,3.5,-71.1025557,42.3668745,74 Prospect StCentral SquareCambridge, MA 02139
hC4JMUU_qjmD0Sm2KnbZww,3.0,-97.7343157,30.2920568,3000 Duval StUniversity of TexasAustin, TX 78705
7D7DHQw4Hl2X0PsUSP6iGw,1.5,-76.9274272,39.014859,9717 Baltimore AveCollege Park, MD 20740
wSWoGrE63HhDs3_Y4F29Og,4.5,-86.8850254,40.4192209,1024 Main StLafayette, IN 47901
-4ppieQivAHq4flJXwqy0g,3.5,-120.6649434,35.2794069,1040 Broad StSan Luis Obispo, CA 93401
p1izzP-7YomYrP2spmOrBQ,3.0,-73.9594243,40.809068,1213 Amsterdam AveMorningside HeightsNew York, NY 10027
rB4zuPS8lh4zwlag2n0QbQ,3.0,-120.6652097,35.2885924,296 Santa Rosa StSan Luis Obispo, CA 93405
9tACFKALGkwU1dNWcPap1w,2.0,-118.133061,34.139945,345 S Lake AvePasadenaPasadena, CA 91101
VZNKj35pKzs-fR8_CMPrgA,3.5,-76.499353,42.4387451,106 W Green StIthaca, NY 14850
o7Dq7X8vQs7KiJhSBbKMVQ,3.0,-76.483706,42.482053,2309 N Triphammer RdSte 15Ithaca, NY 14850
0bVwoKq82AtclqPbWk9hfQ,2.0,-86.868141,40.444459,2506 Schuyler AveLafayette, IN 47905
yw3dfUD1PO8EdGLHdbGevA,2.0,-88.2267243,40.1041728,1402 W. Gregory DriveUrbana, IL 61801
18BEL7-LtOS3Mkfi7CmiYA,1.5,-84.3874511,33.7706153,600 W Peachtree StSte 750DowntownAtlanta, GA 30308
zzh3XNV25Fngor_E72aGWg,4.0,-73.9597761,40.8082634,1187 Amsterdam AveMorningside HeightsNew York, NY 10027
_aYezzE-UV9O_RSH8zgubw,3.5,-79.056375,35.915182,210 N Columbia StChapel Hill, NC 27517
oiCNeV8BkuVmKQnDLj634g,4.0,-74.6620559692,40.368781632,47B State Rd Rt 206Princeton, NJ 08540
sn19SpNpjZ8BsZiXOqsAAA,3.0,-79.948368,40.444896,411 S Craig StOaklandPittsburgh, PA 15213
CxELcWrHxqgFbRPdkfF8bw,3.5,-118.277794,34.028282,2601 South FigueroaSouth Los AngelesLos Angeles, CA 90007
tiVAkO1E6sZ8zmhPxNusxA,5.0,-84.3874755,33.7805996,950 W Peachtree St NWSte 250MidtownAtlanta, GA 30309
TukzzR1Ys2zAQ0bZuMGxPw,3.0,-73.6816793,42.7308634,110 8th StTroy, NY 12180
Rt0fJK1BA9dQDWSX1usBMg,3.5,-73.9557708,40.8047595,303 W 116th StreetHarlemNew York, NY 10026
rYGKOsxilNpA4CV8HBb08g,2.0,-73.6887347,42.7321003,44 4th StTroy, NY 12180
tMA2Q7IV78IqW-MV7WNQQQ,1.0,-79.9653351,40.4377156,3608 5th AveOaklandPittsburgh, PA 15213
H28stpCVCWKQhz2YOXwVQg,3.5,-84.384137,33.777695,855 Peachtree St NESte 1BMidtownAtlanta, GA 30308
JvRwv73uLnnufi4zA-Fhew,3.0,-79.0219385,35.906825,1111 Environ WayChapel Hill, NC 27517
u7ZNX4vGANTV5KmF99fbWA,3.0,-79.9311175,40.4557138,5744 Ellsworth AveShadysidePittsburgh, PA 15232
jm0Smx_0_T_VZ1QJQAg7WQ,3.5,-118.446983,34.063116,920 Broxton AveWestwoodLos Angeles, CA 90024
Gyv8LxXIj3fa_hrDom26aQ,3.0,-75.2071712,39.9563,4211 Chestnut StUniversity CityPhiladelphia, PA 19104
VKnzRVwEJz-yio8yf5QhUw,5.0,-95.4169063,29.7254223,2507 Bissonnet StWest UniversityHouston, TX 77005
DbbdYLsXjr2zSfe98gnPtw,4.5,-97.742776,30.284991,405 W 22nd StWest CampusAustin, TX 78705
SzM2o6LPGqNUgREf9kuaVg,1.5,-73.9563808,40.8136412,505 W 125th StHarlemNew York, NY 10027
Mlf0CVy5-7YX3kxl5SXsCg,4.0,-71.1198692,42.3726317,36 JFK St2nd FlHarvard SquareCambridge, MA 02138
P_FeCNFDpVhu40gbq4eNSA,5.0,-71.1002,42.3669,P.O. Box 381351Central SquareCambridge, MA 02238
45xpE2cBGTZ_z1YhIv5BbQ,3.5,-118.1311882,34.143953,140 Shoppers LnPasadenaPasadena, CA 91101
tEMBDagwWG2riW8m_qBM6w,3.0,-83.7358019,42.2749916,1117 S University AveSouth University Ann ArborAnn Arbor, MI 48104
73iN5mRM1KDNm9sdjveSfA,2.0,-97.741832,30.286299,2270 Guadalupe StThe DragAustin, TX 78705
hpoUWb4V9t58CxfdNMYigg,3.0,-122.3130889,47.6592678,4232 University Way NEUniversity DistrictSeattle, WA 98105
VdLrfmMpTls8q1B0t3visQ,4.0,-71.4097596,41.8184374,15 Elbow StDownCityProvidence, RI 02903
9HXjkcyjIVCFErU6SxQb9g,4.0,-72.5189461,42.3830274,232 E Pleasant StAmherst, MA 01002
vI-gfEpz63XkPKhazEpowg,4.0,-74.654221,40.350838,195 Nassau StPrinceton, NJ 08542
ncM7knCAFXLB52y-fon21w,2.0,-76.510687,42.4391956,710 W State StIthaca, NY 14850
XNXdzfcpQHyvrsHSFJYDFw,4.5,-120.662759,35.279425,1111 Chorro StSan Luis Obispo, CA 93401
kNr1gvtSgvxM7Zk37uR_bg,4.5,-71.3982904,41.8204601,137 Brook StFox PointProvidence, RI 02906
tFxXaLjDdQsnwvlEBcWXxQ,2.5,-117.233338,32.870653,8939 Villa la Jolla DrSte 110San Diego, CA 92037
v5_BWi9WZ5-fxo133IlFJQ,4.0,-71.1233961,42.3727443,Charles Square20 University RdHarvard SquareCambridge, MA 02138
4IqzhMpKHEspD-2bASdPow,5.0,-88.230157,40.1107889,602 E Green StSte 2Champaign, IL 61820
38nA0fIJMCj2EoLpAcPj2Q,3.5,-120.6596156,35.2827524,San Luis Obispo, CA
Z790cn7ThAuvm-j-hNnukw,3.5,-84.4054166,33.7815616,543 10th StGeorgia TechAtlanta, GA 30318
z7543gTRoewwvk72MwqvGg,3.5,-122.3132913,47.6609053,4337 University Way NEUniversity DistrictSeattle, WA 98105
x09efcVl5WCcrChXpHKSJQ,3.5,-97.740206,30.2900584,2605 Whitis AveUniversity of TexasAustin, TX 78705
M1-3lbWDPV-crfnkapFMwg,3.0,-72.5192835,42.3756929,18 Main StAmherst, MA 01002
Zw550zrQJ2zxCteW0oW48g,3.0,-75.1953934,39.9583587,Powelton VillagePhiladelphia, PA 19104
meXU5mzbXhnpjFjEtEaoqg,3.0,-118.4473167,34.0625516,10955 Weyburn AveWestwoodLos Angeles, CA 90024
kDOwadSGn48Kvkkd5r7SOA,5.0,-120.66,35.28,PO Box 12535San Luis Obispo, CA 93406
uZoT_yk0iVHlXq2uJB60Sw,2.5,-120.6506271,35.2894137,1895 Monterey StreetSan Luis Obispo, CA 93401
P-2zSdHB1rudqS5oGNIlqg,4.5,-71.4009512,41.8295851,278 Thayer StCollege HillProvidence, RI 02906
KofmXktylwRz6ziJqW24tg,2.0,-75.182487,39.954886,2955 Market StUniversity CityPhiladelphia, PA 19104
TTsPXpyxJcfj7g7hsjtx1w,4.0,-76.9446812,38.9881854,0213 Stamp Student UnionCollege Park, MD 20740
gtVk7m6eldEfsJFD9LHRUg,4.0,-73.966209,40.805159,2867 BroadwayMorningside HeightsNew York, NY 10025
FSwYtdKnrIQ3ofqMShHKJg,4.5,-118.4432348,34.0691115,5800 Boelter HallWestwoodLos Angeles, CA 90095
IhD2Bf8MySxTR5yyKjxguA,3.5,-75.2025821,39.9541174,40th and Walnut StreetUniversity CityPhiladelphia, PA 19104
WmmJKcSIwPrXb_fWKoXggQ,5.0,-95.395715,29.705739,1600 Holcombe BlvdMedical CenterHouston, TX 77030
3QCY93kLbH29Cctus8IyKQ,4.0,-76.4970954,42.4298512,825 Danby RdIthaca, NY 14850
of2INzyV6kuSUWsmK9Vj2w,4.5,-74.676052,40.3632752,57 Mountain AvePrinceton, NJ 08540
tpJrlhn5QPI0ehDyYjN7qg,4.5,-79.9420469,40.4257502,509 Greenfield AveGreenfieldPittsburgh, PA 15207
MzFhaFNbE03zF84BPkN7yQ,3.0,-75.194077,39.954622,3549 Chestnut StUniversity CityPhiladelphia, PA 19104
R2n5cl_bG2e4CxfCUg1U3A,3.0,-118.1322567,34.1355081,600 S Lake AveSte 306PasadenaPasadena, CA 91106
AcK2QL8tM6y9abwFjqDXWQ,2.5,-122.3129014,47.664982,5000 University Way NEUniversity DistrictSeattle, WA 98105
6dczr45COCxKM1YmdQNhaw,4.5,-117.2435296,32.8986778,10666 N Torrey Pines RdLa Jolla, CA 92037
CYr_ln80SyS1B6Equ1qHUg,3.0,-73.9624327,40.8138912,35 W 125th Street Rm 8HarlemNew York, NY 10027
rmUDShhPeM2miA41sRx4EA,4.5,-71.0795139,42.3646087,215 1st StKendall Square/MITCambridge, MA 02142
1E2MQLWfwpsId185Fs2gWw,3.5,-122.2581978,37.867768,2516 Durant AveTelegraph AveBerkeley, CA 94704
jarN5Qu9Ana9qJwTybNh0w,3.5,-76.932757,38.990908,8145 Baltimore AveSte FCollege Park, MD 20740
LMy26GNK1lyyz4j-E1A6GQ,3.5,-73.964501,40.802645,992 Amsterdam Aveat 109th StManhattan ValleyNew York, NY 10027
PIaV4xeLf2jg-vfPYrGR3w,4.0,-75.179605,39.949978,231 S 24th StRittenhouse SquarePhiladelphia, PA 19103
Q3ZpdLQg4ZIZ0IIuN_wvPw,3.5,-117.699501,34.0924551,4839 Arrow HwyMontclair, CA 91763
oGOz6yTl19M9sSOedAJ-ag,3.5,-117.6998397,34.0995063,2420 W Arrow RtUpland, CA 91786
Yom5MNVo6WANnsc9C-4MJQ,2.5,-118.1204226,34.1460707,1441 E Colorado BlvdPasadenaPasadena, CA 91199
dB9yLzlPggs3SA_U-B3yMg,3.0,-118.1257222,34.1459173,1190 E Colorado BlvdPasadenaPasadena, CA 91106
mWtQbQ39mhYtH2r-wZY9lA,4.0,-118.1324595,34.1379551,455 S Lake AveSte 101PasadenaPasadena, CA 91101
cahTsvpkZGAbEH0ZmIZ9cw,3.0,-97.7419844,30.2839957,2100 Guadalupe StThe DragAustin, TX 78798
Rd53WXfWzAOfNEFKsFqinw,3.5,-122.312767,47.663861,4730 University Way NESte 101University DistrictSeattle, WA 98105
tZLtxMw6jqvOJtO_TSO6AQ,4.5,-73.6745028,42.7725497,531 5th AveTroy, NY 12182
6A6CjSZPghcS74C9OCkFQQ,4.5,-122.2584039,37.8669476,2508 Channing WayTelegraph AveBerkeley, CA 94704
bAWwkHx0WhEUutTKNA6JJg,3.5,-117.7192316,34.0881565,376 S Indian Hill BlvdClaremont, CA 91711
SpXBHrRfXJdocVkQa16zxg,3.0,-79.9228515,40.4378792,5800 Forbes AveSquirrel HillPittsburgh, PA 15217
KeI0EKf0zqmSi5VRoUt6cw,4.0,-79.0706862,35.911247,200 N Greensboro StCarrboro, NC 27510
wF3DKkz5HaNFWz6Sh5AJYA,1.5,-122.2641036,37.8680038,2242 Bancroft WayUC Campus AreaBerkeley, CA 94704
BFcpJ6F86ygOJNPbW-QYmQ,3.5,-95.4108321,29.7318917,3820 S Shepherd DrUpper KirbyHouston, TX 77098
APqEbz5ST_fRQczCimW5zw,4.5,-117.7178956,34.0960348,221 Yale AveClaremont, CA 91711
TZqSbTyzsVVcHR9K2fUvcQ,3.0,-71.410781,41.817929,18 Bassett StDownCityProvidence, RI 02903
HlWwdYeCxsZdMx9Xs75UZQ,5.0,-122.3138258,47.6612128,1305 NE 45thSuite 206University DistrictSeattle, WA 98105
voadAAOcqg9DPUCJwM6-Nw,4.0,-95.4158169,29.7174611,2421 Rice BlvdWest UniversityHouston, TX 77005
UYG7_cYTZ8xdlp56xs485w,2.5,-117.21822,32.868621,8540 Costa Verde BlvdUniversity CitySan Diego, CA 92122
lXVJLzBNEd5qWuoX1d1okQ,3.0,-75.1928223,39.9582825,3513 Lancaster AvePowelton VillagePhiladelphia, PA 19104
n25WOhvePdED2VQba6VRUA,3.5,-118.2773514,34.0261018,2801 S Figueroa StSouth Los AngelesLos Angeles, CA 90007
FEeEcwNS-TRtDYA5ClCDdQ,4.0,-76.9403451,38.9556713,5501 Baltimore AveSte 107Hyattsville, MD 20781
BvOa6j_YiBbtc3h7Fo5ScQ,3.0,-75.189343,39.955414,33rd St & Market StUniversity CityPhiladelphia, PA 19104
_3pQcGjFzacx7Zow4TZWwQ,3.0,-73.964196,40.802796,1012 Amsterdam AveManhattan ValleyNew York, NY 10025
t1J5b65nI6M3Mi2HvJzHng,4.5,-95.401685,29.708889,6624 Fannin St Ste 2105Medical CenterHouston, TX 77030
_tTTuyGAyIcm3mYonSnxjA,4.5,-95.396638,29.7167642,6221 Main StWest UniversityHouston, TX 77030
fcdjnsgO8Z5LthXUx3y-lA,3.5,-122.2582558,37.8644503,2533 Telegraph AveTelegraph AveBerkeley, CA 94704
Iggez45FOelUEv00EznD8Q,3.5,-75.2025937,39.9540857,201 S 40th StUniversity CityPhiladelphia, PA 19104
28stnYJ1KKgT3wQdIkAIjg,4.0,-118.2916465,34.0327688,1403 W Adams BoulevardSouth Los AngelesLos Angeles, CA 90007
dCy1oVUMnoyNknh_Skxpug,2.5,-122.2990925,47.6633089,2650 NE University VillageUniversity DistrictSeattle, WA 98105
S16YsO21x0MOHWWhN5HxAw,4.0,-79.9305572,40.456444,5811 Ellsworth AveShadysidePittsburgh, PA 15232
A9Zctl-TaRIM1qJZ3MbJUA,4.0,-74.6621124,40.3554501,221 Witherspoon StPrinceton, NJ 08542
ossi9K7n2HNR_AyLB8rpOQ,5.0,-73.684835,42.744461,649 River StTroy, NY 12180
a5cpPNHqLAor_0KA8fU7RQ,2.5,-84.3970324,33.7638261,393 Marietta St.Atlanta, GA 30313
TjcXl6QUJxb5kdcpTzYUOw,3.5,-118.4452647,34.0629402,950 Westwood BlvdWestwoodLos Angeles, CA 90024
tB_dJN_yomEtiG31YuPWWw,2.5,-74.5970612,40.3653682,3563 US Route 1Princeton, NJ 08540
D6374F90YKRU7qktcXAA7g,4.0,-84.3852098,33.7681828,499 Peachtree St NEDowntownAtlanta, GA 30308
YiG3yNM1PCgkDUhOrr74lA,3.0,-122.260284,37.8662599,First Presbyterian Church of Berkeley2407 Dana StTelegraph AveBerkeley, CA 94704
YzNr5QN_t2tbxitwcuu8EA,3.5,-120.6607636,35.2812018,1000 Higuera StSan Luis Obispo, CA 93401
04THECdIAZ877hAiG3bfYA,4.0,-73.7307881,42.6839612,116 BroadwayAlbany, NY 12204
GS3vqosK_1vROEnqzvUrMg,3.0,-80.538572,43.472294,170 Av University OWaterloo, ON N2L 3E9
vc7pfXnGey0lUFC5DwnO7Q,5.0,-118.1252077,34.145941,1216 E Colorado BlvdPasadenaPasadena, CA 91106
wmWy8Y_I92ADhwVD4bXxeQ,2.5,-71.103962,42.362928,Harvard Station via Mt. Auburn StCentral SquareCambridge, MA 02139
PeZu37TOMW3S9UuB6QUmDA,2.0,-88.2387836,40.110216,59 E Green StChampaign, IL 61820
yB-GD9GuRlEAS5ZXoS1szQ,4.0,-118.279862,34.021295,Univeristy Of Southern California3400 S Figueroa StSouth Los AngelesLos Angeles, CA 90089
8Xws_m6p_O_1lOwiD2I1Ow,3.5,-84.4075211,33.780059,920 Northside DriveAtlanta, GA 30318
KP2ltbi7n6vxTEG6kuooNQ,5.0,-122.3130935,47.663708,4719 University Way NESte 210University DistrictSeattle, WA 98105
xULATz2siGXOPia614mg2A,3.0,-79.949084,40.4451449,400 S Craig StOaklandPittsburgh, PA 15213
hiL5mQL0N_kzX9JxrtqqwA,1.0,-76.919314,38.960776,6121 Kenilworth AveRiverdale, MD 20737
2sHQrO5glncdrJRcTCucGg,3.5,-117.2333,32.8672063,8807 Villa La JollaBldg OLa JollaSan Diego, CA 92037
m6eV0s5SlCoDgVqd45njAg,2.5,-118.2730164,34.0222378,3016 S Hill StSouth East LALos Angeles, CA 90007
b88HUwXarEDlFehKzaqzBg,3.5,-72.51954,42.376116,23 N Pleasant StAmherst, MA 01002
3NBPta-oH4MCNbR5k_wQjw,4.5,-95.414304,29.717165,2365 Rice Blvd Ste EWest UniversityHouston, TX 77005
QI0FYatL0VtX07duLHdu9A,3.5,-75.197734,39.950948,3724 Spruce StUniversity CityPhiladelphia, PA 19104
iG8DnZCnKHH_KYC8pG14NQ,4.5,-84.4054662,33.7815619,535 10th St NWGeorgia TechAtlanta, GA 30318
BonZ748EKm8pwtVQalFpYQ,4.0,-118.275138,34.0287719,2498 S Figueroa StSouth Los AngelesLos Angeles, CA 90007
yc9si6XPm1onX157NQXshQ,4.5,-95.415909,29.719466,2421 TangleySte 114West UniversityWest University Place, TX 77005
6vxPFIAUmOUFXerEmGRdiQ,4.5,-117.2317657,32.8646622,8657 Villa La Jolla DrLa JollaLa Jolla, CA 92037
pL1C3UIhlqVZXFpA8J8Q7w,3.0,-75.192893,39.953536,3418 Samson StUniversity CityPhiladelphia, PA 19104
e0K9zhY_twFNOS98EwPNJw,3.5,-86.8907571,40.4192193,536 Main StLafayette, IN 47901
BkJtywTAG-a9fU6rdaL6UQ,3.5,-97.73651,30.277757,1607 San Jacinto BlvdDowntownAustin, TX 78701
LBUdbb1n-E9uGCmlwQbQVg,5.0,-75.178483,39.949984,2223 Locust StRittenhouse SquarePhiladelphia, PA 19103
1Y11dkfWyXEKwH-xyG0llQ,3.0,-95.418791,29.723347,5410 Kirby DrWest UniversityHouston, TX 77005
6reQFssNNWaSXxA8wpTnrQ,2.5,-73.9614844,40.813728,500 Riverside DrHarlemNew York, NY 10027
ZmRh1MLRZkmfpB0xLB6s3w,4.5,-71.12041,42.373122,26 Brattle StHarvard SquareCambridge, MA 02138
j0lgvR3AAG1FL6qj9AmWEg,3.5,-83.747142,42.2805346,203 E Washington StDowntown Ann ArborAnn Arbor, MI 48104
OsFjnqRz8-dgSlY0GHv6Mw,4.0,-83.7406904,42.2748884,525 S State StAnn Arbor, MI 48109
LpjwkQXcCxozUG7boL8g6A,3.0,-95.401625,29.709702,1709 Dryden RdWest UniversityHouston, TX 77030
Aj4VcyWnXHQrYBjkoQj8QQ,5.0,-83.7469195,42.2833549,201 Catherine StKerrytown Ann ArborAnn Arbor, MI 48104
MHC32AfdABa8Hk31i7ftRQ,4.5,-122.1630923,37.4430006,525 Alma StPalo Alto, CA 94301
ZP451PP7x_K08jsoSyo3aw,3.0,-79.0591621399,35.9121326819,210 W Franklin StChapel Hill, NC 27516
RXqrU1I8GsjXwfSlHmJ5Aw,4.5,-79.0581208,35.9122087,University Square143 W Franklin StChapel Hill, NC 27516
iZJmpNvUvdiWCjJMi3ZPGg,3.0,-118.436315,34.062979,100 UCLA Medical PlazaSte 310WestwoodLos Angeles, CA 90024
TUWrwm9iOsbEzyo6s4IdFA,3.5,-97.7483267,30.2883467,1004 W 24th StWest CampusAustin, TX 78705
UG3kQMnh5pyl6UsL7y29vA,5.0,-118.4367551,34.0631451,WestwoodLos Angeles, CA 90024
orOMKuZv6vmqt2u4Xc4cGw,4.5,-97.744744,30.284205,2101 Rio GrandeSte 1001West CampusAustin, TX 78705
_ookOKAe-p17uJKLNmA_fg,4.5,-71.085206,42.363596,1 BroadwayKendall Square/MITCambridge, MA 02142
uHnV3vqHGH1H1kqO8jjiyw,5.0,-97.7459669,30.2824928,1805 West AveUniversity of TexasAustin, TX 78701
uLWP9FVdklJXP37BsT6YIA,4.0,-73.9663367,40.8048653,2857 BroadwayMorningside HeightsNew York, NY 10025
caMYd-Rhvrg4_K4BLIMUew,1.5,-117.6898242,34.0941927,8790 Central AveMontclair, CA 91763
rQZBjywf-SFDNjokmN_v7w,4.5,-122.3120779,47.656811,Henry Art Gallery4099 15th Ave NEUniversity DistrictSeattle, WA 98105
PuTHnd2I7mhZG28wQw8rVg,4.0,-122.17792511,37.4347264133,Stanford Hospital300 Pasteur Dr, 3rd flPalo Alto, CA 94304
5_h-nkc_gvEPvJcFkXm4bQ,4.5,-76.926495,38.998001,4901 Greenbelt RdCollege Park, MD 20740
76hIZMzHZ_lFM0p2N7_gRQ,3.5,-80.4148,37.231,302 N Main StBlacksburg, VA 24060
PTIA2n0J0d0Ds1rnUSBX8Q,2.5,-122.313464,47.661132,4345 University Way NEUniversity DistrictSeattle, WA 98105
9rdigHXd49AKYopcG9-Mnw,5.0,-122.163949,37.421262,Stanford, CA 94305
BaUGumr52h2UNGTX4GUSGw,5.0,-120.669004,35.282168,640 Hill StSan Luis Obispo, CA 93405
IWZg1OfbxbNZ10LhOTHfww,3.0,-84.384439,33.772599,659 Peachtree St NEMidtownAtlanta, GA 30308
cgmqzUo7UVGe_KSlGUlK6A,4.0,-95.418114,29.719603,5819 Kirby DrWest UniversityHouston, TX 77005
GkP9nxbS9tPbx2xOpD_tIg,4.5,-120.6639846,35.2812215,952 Chorro StSan Luis Obispo, CA 93401
7pd9NLLoZ4Dy9tKZX2WP0A,4.0,-79.956132,40.439428,3616 Louisa StreetOaklandPittsburgh, PA 15213
hf_6wAfO9h7HN-P3bUr2MA,3.5,-79.9231801,40.4379897,1700 Murray AveSquirrel HillPittsburgh, PA 15217
J9ZH-PQHtDgJq1fGsb0wCQ,4.0,-122.309724,47.6612579,University of Washington17th Ave NE & NE 45th StUniversity DistrictSeattle, WA 98105
I5XKovbnfJ8W8vuHKvf3Vw,4.5,-118.436315,34.062979,100 Ucla Medical Plz Ste 150WestwoodLos Angeles, CA 90024
0wJWMBmwU3-NRJBpPO8uJg,5.0,-118.131795,34.139148,Coldwell Banker Pasadena388 S Lake AvePasadenaPasadena, CA 91101
E-dX2Lc213Gee-TIISXbSA,3.5,-84.4006016,33.7889169,401 16th StSte 3000Atlantic StationAtlanta, GA 30363
rjKMTKPsjYw4RtiMpHquJA,3.0,-79.928882,40.457666,5865 Ellsworth AveShadysidePittsburgh, PA 15232
Sqp5adruhp0QvtT9RKzzsA,4.5,-71.1145282,42.3713153,1156 Massachusetts AveHarvard SquareCambridge, MA 02138
4kR9-F-iooU_l_n2mgSGDw,4.5,-80.401486,37.2172652,1338 S Main StBlacksburg, VA 24060
8ZfZ3AkQv2USyl5-BxJVLw,3.5,-120.6620955,35.2812478,953 Monterey StSan Luis Obispo, CA 93401
mlXtGO4O8rMJYLShcegCRg,4.0,-73.75714,42.754289,873 New Loudon RdLatham, NY 12110
Vf44uj2f3lVlcHs0ambUlw,4.5,-79.937173,40.4559349,5430 Centre AveShadysidePittsburgh, PA 15232
R4-1hRvYiJhH1aSzw0UX8g,2.5,-118.132273,34.1432255,146 S Lake Ave Ste 109PasadenaPasadena, CA 91101
GLoChe_wCEtZU9Ky1QYVMQ,4.0,-71.3998136,41.8300901,161 E Cushing StCollege HillProvidence, RI 02906
Ol8v3U-v4gq7lN0iIXqvXw,3.0,-72.5328553,42.3734797,10 University DrAmherst, MA 01002
X48_-RjsQMLz8pMVU9JEQA,2.5,-76.5099542,42.4442778,Cascadilla & Fulton StIthaca, NY 14850
MTosaEVCSW1wapIWZXGkzw,2.5,-73.678405,42.726768,1527 15th StTroy, NY 12180
wk-jeSDfKczMjDrzsRLcMg,5.0,-120.652112,35.285755,1150 Grove StSan Luis Obispo, CA 93401
rrUWiTpF2wwBSQoTCMoexg,3.5,-88.205811,40.1167919,202 E University AveSte HUrbana, IL 61801
-1K9xLVS8HnG8n0g7Xq7mQ,4.0,-71.401268,41.829438,220 Meeting StCollege HillProvidence, RI 02906
RnGDX0tUKW389sE4--jShA,4.0,-76.936688,38.9813123,4500 Lehigh RdSte DCollege Park, MD 20740
owg0N783oHfL_DC9_kXY-Q,2.5,-117.2246122,32.8670218,3417 Lebon DrUniversity CitySan Diego, CA 92122
kN6Ai2WOz8dEBC75l77iBg,2.0,-80.4014221,37.2175539,1305 S Main StBlacksburg, VA 24060
cXBOQkBmYXl_YxnCTaaFNQ,4.0,-76.932757,38.990908,8145-D Baltimore AveCollege Park, MD 20740
XwuBHsqEyvL0bSFBi8fhgw,4.0,-76.930426,39.006131,9204 Baltimore AveCollege Park, MD 20740
TvU8F_N2QM2KebTDtubLxA,4.5,-118.2748856,34.0297495,2518 S Figueroa StSouth Los AngelesLos Angeles, CA 90007
1bLBnfRzvA5CSj7c1F2jZg,5.0,-118.127474,34.14486,1109 E Green StPasadenaPasadena, CA 91106
dW79jPJVpzlTKGF-1JAsaw,4.0,-79.9229637,40.4355951,1912 Murray AveSquirrel HillPittsburgh, PA 15289
xKX3Vd70q1Myo1fKN5-Tkg,5.0,-97.7389543,30.2961708,University of TexasAustin, TX 78705
xrrqVE1D6mW_KQ8cKbJutA,4.0,-74.651262,40.364045,301 N Harrison StPrinceton, NJ 08540
eCAOhaI3cKSIQUvDWd6MGQ,3.5,-73.9619896,40.8004423,975 Columbus AveManhattan ValleyNew York, NY 10025
gsxBic3oXStmNtg10h6StA,3.0,-97.7414152,30.2902007,2552 Guadalupe StThe DragAustin, TX 78705
Q9LaqaZE-AYp8u7nNEGWIA,4.0,-83.7322456,42.2750584,1327 S University AveSouth University Ann ArborAnn Arbor, MI 48104
uHmGhrHGstrBVLaXCVqoig,3.5,-71.1037293,42.3636856,45 Pearl StCentral SquareCambridge, MA 02139
cL1nURym0sjqCnoaEXG0yw,3.5,-73.7582391,42.7468616,463 Troy Schenectady RoadLatham, NY 12110
QNgOyKQNDZ2BED7c2gctuA,4.0,-73.700726,42.773226,133 Remsen StCohoes, NY 12047
yrm_71ndep3VWt3pYsfciw,4.5,-118.131837,34.142896,170 S Lake AvePasadenaPasadena, CA 91101
L4v7-i9PIOXr7hSyNIAzcg,3.0,-79.9593772,40.4395036,3454 Forbes AveOaklandPittsburgh, PA 15213
ulfy5LAm3jUU7BktYbtHwg,4.5,-73.706584,42.7138003,628 3rd AveWatervliet, NY 12189
jniAYYUXDPxhQlwzGBmjAQ,4.0,-73.7658119202,42.751849571,579 Troy Schenectady RdSte 80Latham, NY 12110
TTdVm1JRpUPGu2Ps_38ZJQ,4.0,-122.3133203,47.6599588,4303 University Way NEUniversity DistrictSeattle, WA 98105
3k9PWkWl7WYLySeudeGx6w,3.0,-118.448721,34.063779,10995 Le Conte AveWestwoodLos Angeles, CA 90024
5K1nHi7QkQsuuE3xgwq9xw,2.5,-71.0941,42.3494,485 Commonwealth AveBoston, MA 02215
Z0uNbAindJ7Ewu8wd7HCHA,3.5,-74.62683,40.341615,3815 US Rt 1Princeton, NJ 08540
QF4McYH5huGxgwOC2-Rxmg,3.0,-71.094761,42.359083,MIT Student Center84 Massachusetts AveKendall Square/MITCambridge, MA 02139
1Iek-D2wudsh0b7z1zkkCA,4.5,-74.6599102,40.3434859,91 University PlPrinceton, NJ 08540
j85vAyM0rT-u4xQd4Tb9Aw,5.0,-71.0860089,42.3623164,292 Main StKendall Square/MITCambridge, MA 02142
NLhgRKwRGvXrehBD5AcqPQ,3.5,-76.498851,42.439776,102 E State StIthaca, NY 14850
